latitude,longitude,altitude(m),ultrasonicHeight(m),speed(mps),distance(m),max_altitude(m),max_ascent(m),max_speed(mps),max_distance(m),time(millisecond),datetime(utc),datetime(local),satellites,pressure(Pa),temperature(F),voltage(v),home_latitude,home_longitude,velocityX(mps),velocityY(mps),velocityZ(mps),pitch(deg),roll(deg),yaw(deg),powerlevel,isflying,istakingphoto,remainPowerPercent,remainLifePercent,currentCurrent,currentElectricity,currentVoltage,batteryTemperature,dischargeCount,flightmode,isMotorsOn,isTakingVideo,Rc_elevator,Rc_aileron,Rc_throttle,Rc_rudder,Rc_gyro,timestamp,Battery_Cell1,Battery_Cell2,Battery_Cell3,Battery_Cell4,Battery_Cell5,Battery_Cell6,Dronetype,AppVersion,Planename,FlyControllerSerialNumber,RemoteSerialNumber,BatterySerialNumber,CENTER_BATTERY.productDate,CENTER_BATTERY.serialNo,CENTER_BATTERY.fullCapacity,CENTER_BATTERY.productDateRaw,pitchRaw,rollRaw,yawRaw,gimbalPitchRaw,gimbalRollRaw,gimbalYawRaw,flyState,altitudeRaw,speedRaw,distanceRaw,velocityXRaw,velocityYRaw,velocityZRaw,data_reuse,App_Tip,App_Warning,downlinkSignalQuality,uplinkSignalQuality,transmissionChannel,rcModeSwitch,rcHome,rcPause,rcTransform,rcJoystickMode,appMode,FlyControllerSerialNumber_legacy,RemoteSerialNumber_legacy,BatterySerialNumber_legacy,Battery2SerialNumber,frontAvoidDist,backAvoidDist,rightAvoidDist,leftAvoidDist,upAvoidDist,downAvoidDist,isBrakingToAvoid
42.323412,117.204576,2.40,0.00,1.81,0.71,2.40,2.40,1.81,0.71,0,2024-06-21 09:05:49.944,2024-06-21 17:05:49.943,17,0,0,25.691,42.323414,117.204567,0.10,0.10,-1.70,-2.80,0.50,-149.00,0,1,0,95,91,-756,5180,25691,2932.50,36,P-GPS,1,0,0,0,265,0,0,1718960749943,4051,4054,4054,4058,4056,4053,18,Litchi_4.26.0-g,,0670161996,03LU200020,null,,0,0,0,28.00,5.00,-1490.00,0.00,0.00,0.00,6,24.00,18.06,7.13,1.00,1.00,-17.00,0,,,100,39,13,2,0,0,1,2,0,,,,null,0.0,0.0,0.0,0.0,0.0,0.0,-1
42.323412,117.204576,2.60,0.00,1.71,0.72,2.60,2.60,1.81,0.72,203,2024-06-21 09:05:50.147,2024-06-21 17:05:50.147,17,0,0,25.691,42.323414,117.204567,0.10,0.00,-1.30,-2.70,0.50,-149.00,0,1,0,95,91,-756,5180,25691,2932.50,36,P-GPS,1,0,0,0,197,0,0,1718960750146,4051,4054,4054,4058,4056,4053,18,,,,,,,0,0,0,27.00,5.00,-1490.00,0.00,0.00,0.00,6,26.00,17.06,7.22,1.00,0.00,-13.00,0,,,100,39,13,2,0,0,1,2,0,,,,,0.0,0.0,0.0,0.0,0.0,0.0,-1
42.323413,117.204576,3.00,0.00,1.10,0.72,3.00,3.00,1.81,0.72,305,2024-06-21 09:05:50.249,2024-06-21 17:05:50.248,17,0,0,25.691,42.323414,117.204567,0.10,0.00,-1.10,-1.80,0.40,-149.00,0,1,0,95,91,-756,5180,25691,2932.50,36,P-GPS,1,0,0,0,216,0,0,1718960750248,4051,4054,4054,4058,4056,4053,18,,,,,,,0,0,0,18.00,4.00,-1490.00,0.00,0.00,0.00,6,30.00,11.05,7.24,1.00,0.00,-11.00,0,,,100,39,13,2,0,0,1,2,0,,,,,0.0,0.0,0.0,0.0,0.0,0.0,-1
42.323413,117.204576,3.10,0.00,0.80,0.72,3.10,3.10,1.81,0.72,510,2024-06-21 09:05:50.453,2024-06-21 17:05:50.453,17,0,0,25.691,42.323414,117.204567,0.00,0.00,-0.80,-1.70,0.10,-149.00,0,1,0,95,91,-756,5180,25691,2932.50,36,P-GPS,1,0,0,0,217,0,0,1718960750453,4051,4054,4054,4058,4056,4053,18,,,,,,,0,0,0,17.00,1.00,-1490.00,0.00,0.00,0.00,6,31.00,8.00,7.23,0.00,0.00,-8.00,0,,,100,39,13,2,0,0,0,2,0,,,,,0.0,0.0,0.0,0.0,0.0,0.0,-1
42.323413,117.204576,3.30,0.00,0.70,0.73,3.30,3.30,1.81,0.73,707,2024-06-21 09:05:50.650,2024-06-21 17:05:50.650,17,0,0,25.691,42.323414,117.204567,0.00,0.00,-0.70,-1.40,-0.10,-148.90,0,1,0,95,91,-756,5180,25691,2932.50,36,P-GPS,1,0,0,0,218,0,0,1718960750650,4051,4054,4054,4058,4056,4053,18,,,,,,,0,0,0,14.00,-1.00,-1489.00,0.00,0.00,0.00,6,33.00,7.00,7.25,0.00,0.00,-7.00,0,,,100,39,13,2,0,0,0,2,0,,,,,0.0,0.0,0.0,0.0,0.0,0.0,-1
42.323413,117.204576,3.30,0.00,0.70,0.73,3.30,3.30,1.81,0.73,810,2024-06-21 09:05:50.753,2024-06-21 17:05:50.753,17,0,0,25.691,42.323414,117.204567,0.00,0.00,-0.70,-1.40,0.00,-149.00,0,1,0,95,91,-756,5180,25691,2932.50,36,P-GPS,1,0,0,0,220,0,0,1718960750753,4051,4054,4054,4058,4056,4053,18,,,,,,,0,0,0,14.00,0.00,-1490.00,0.00,0.00,0.00,6,33.00,7.00,7.29,0.00,0.00,-7.00,0,,,100,39,13,2,0,0,0,2,0,,,,,0.0,0.0,0.0,0.0,0.0,0.0,-1
42.323413,117.204576,3.50,0.00,0.80,0.74,3.50,3.50,1.81,0.74,1013,2024-06-21 09:05:50.956,2024-06-21 17:05:50.956,17,0,0,25.691,42.323414,117.204567,0.00,0.00,-0.80,-1.30,0.20,-148.90,0,1,0,95,91,-756,5180,25691,2932.50,36,P-GPS,1,0,0,0,242,0,0,1718960750956,4051,4054,4054,4058,4056,4053,18,,,,,,,0,0,0,13.00,2.00,-1489.00,0.00,0.00,0.00,6,35.00,8.00,7.40,0.00,0.00,-8.00,0,,,100,39,13,2,0,0,0,2,0,,,,,0.0,0.0,0.0,0.0,0.0,0.0,-1
42.323413,117.204576,3.50,0.00,0.80,0.74,3.50,3.50,1.81,0.74,1212,2024-06-21 09:05:51.155,2024-06-21 17:05:51.155,17,0,0,25.691,42.323414,117.204567,0.00,0.00,-1.00,-1.30,0.20,-148.90,0,1,0,95,91,-756,5180,25691,2932.50,36,P-GPS,1,0,0,0,307,0,0,1718960751155,4051,4054,4054,4058,4056,4053,18,,,,,,,0,0,0,13.00,2.00,-1489.00,0.00,0.00,0.00,6,35.00,8.00,7.40,0.00,0.00,-10.00,0,,,100,39,13,2,0,0,0,2,0,,,,,0.0,0.0,0.0,0.0,0.0,0.0,-1
42.323413,117.204576,3.80,0.00,1.20,0.75,3.80,3.80,1.81,0.75,1314,2024-06-21 09:05:51.257,2024-06-21 17:05:51.257,17,0,0,25.691,42.323414,117.204567,0.00,0.00,-1.20,-0.50,0.20,-148.90,0,1,0,95,91,-756,5180,25691,2932.50,36,P-GPS,1,0,0,0,287,0,0,1718960751257,4051,4054,4054,4058,4056,4053,18,,,,,,,0,0,0,5.00,2.00,-1489.00,0.00,0.00,0.00,6,38.00,12.00,7.46,0.00,0.00,-12.00,0,,,100,39,13,2,0,0,0,2,0,,,,,0.0,0.0,0.0,0.0,0.0,0.0,-1
42.323413,117.204576,4.00,0.00,1.30,0.75,4.00,4.00,1.81,0.75,1417,2024-06-21 09:05:51.360,2024-06-21 17:05:51.360,17,0,0,25.691,42.323414,117.204567,0.10,0.00,-1.30,-0.60,0.10,-148.90,0,1,0,95,91,-756,5180,25691,2932.50,36,P-GPS,1,0,0,0,281,0,0,1718960751360,4051,4054,4054,4058,4056,4053,18,,,,,,,0,0,0,6.00,1.00,-1489.00,0.00,0.00,0.00,6,40.00,13.04,7.48,1.00,0.00,-13.00,0,,,100,35,13,2,0,0,0,2,0,,,,,0.0,0.0,0.0,0.0,0.0,0.0,-1
42.323413,117.204576,4.10,0.00,1.40,0.75,4.10,4.10,1.81,0.75,1521,2024-06-21 09:05:51.464,2024-06-21 17:05:51.464,17,0,0,25.691,42.323414,117.204567,0.10,0.00,-1.40,-1.20,0.10,-148.90,0,1,0,95,91,-756,5180,25691,2932.50,36,P-GPS,1,0,0,0,273,0,0,1718960751464,4051,4054,4054,4058,4056,4053,18,,,,,,,0,0,0,12.00,1.00,-1489.00,0.00,0.00,0.00,6,41.00,14.04,7.49,1.00,0.00,-14.00,0,,,100,35,13,2,0,0,0,2,0,,,,,0.0,0.0,0.0,0.0,0.0,0.0,-1
42.323414,117.204576,4.30,0.00,1.50,0.75,4.30,4.30,1.81,0.75,1619,2024-06-21 09:05:51.563,2024-06-21 17:05:51.562,17,0,0,25.691,42.323414,117.204567,0.10,0.00,-1.50,-1.80,0.00,-149.00,0,1,0,95,91,-756,5180,25691,2932.50,36,P-GPS,1,0,0,0,265,0,0,1718960751562,4051,4054,4054,4058,4056,4053,18,,,,,,,0,0,0,18.00,0.00,-1490.00,0.00,0.00,0.00,6,43.00,15.03,7.49,1.00,0.00,-15.00,0,,,100,35,13,2,0,0,0,2,0,,,,,0.0,0.0,0.0,0.0,0.0,0.0,-1
42.323414,117.204576,4.70,0.00,1.40,0.74,4.70,4.70,1.81,0.75,1820,2024-06-21 09:05:51.764,2024-06-21 17:05:51.763,16,0,0,25.691,42.323414,117.204567,0.10,0.00,-1.40,-3.20,-0.10,-149.00,0,1,0,95,91,-756,5180,25691,2932.50,36,P-GPS,1,0,0,0,252,0,0,1718960751763,4051,4054,4054,4058,4056,4053,18,,,,,,,0,0,0,32.00,-1.00,-1490.00,0.00,0.00,0.00,6,47.00,14.04,7.44,1.00,0.00,-14.00,0,,,100,35,13,2,0,0,0,2,0,,,,,0.0,0.0,0.0,0.0,0.0,0.0,-1
42.323414,117.204576,4.80,0.00,1.40,0.74,4.80,4.80,1.81,0.75,1926,2024-06-21 09:05:51.870,2024-06-21 17:05:51.869,17,0,0,25.691,42.323414,117.204567,0.00,0.00,-1.40,-3.20,-0.40,-149.00,0,1,0,95,91,-756,5180,25691,2932.50,36,P-GPS,1,0,0,0,242,0,0,1718960751869,4051,4054,4054,4058,4056,4053,18,,,,,,,0,0,0,32.00,-4.00,-1490.00,0.00,0.00,0.00,6,48.00,14.00,7.37,0.00,0.00,-14.00,0,,,100,38,13,2,0,0,0,2,0,,,,,0.0,0.0,0.0,0.0,0.0,0.0,-1
42.323414,117.204576,4.80,0.00,1.40,0.82,4.80,4.80,1.81,0.82,2222,2024-06-21 09:05:52.166,2024-06-21 17:05:52.166,17,0,0,25.691,42.323409,117.204569,0.00,0.00,-1.20,-3.20,-0.40,-149.00,0,1,0,95,91,-756,5180,25691,2932.50,36,P-GPS,1,0,0,0,265,0,0,1718960752165,4051,4054,4054,4058,4056,4053,18,,,,,,,0,0,0,32.00,-4.00,-1490.00,0.00,0.00,0.00,6,48.00,14.00,8.25,0.00,0.00,-12.00,0,,,100,38,13,2,0,0,0,2,0,,,,,0.0,0.0,0.0,0.0,0.0,0.0,-1
42.323414,117.204576,5.40,0.00,1.20,0.82,5.40,5.40,1.81,0.82,2426,2024-06-21 09:05:52.369,2024-06-21 17:05:52.369,17,0,0,25.691,42.323409,117.204569,0.00,0.00,-1.20,-1.10,-0.90,-149.10,0,1,0,95,91,-756,5180,25691,2932.50,36,P-GPS,1,0,0,0,285,0,0,1718960752369,4051,4054,4054,4058,4056,4053,18,,,,,,,0,0,0,11.00,-9.00,-1491.00,0.00,0.00,0.00,6,54.00,12.00,8.23,0.00,0.00,-12.00,0,,,100,38,13,2,0,0,0,2,0,,,,,0.0,0.0,0.0,0.0,0.0,0.0,-1
42.323414,117.204576,5.70,0.00,1.30,0.82,5.70,5.70,1.81,0.82,2626,2024-06-21 09:05:52.570,2024-06-21 17:05:52.569,17,0,0,25.691,42.323409,117.204569,0.00,0.00,-1.30,-1.40,-0.40,-149.10,0,1,0,95,91,-756,5180,25691,2932.50,36,P-GPS,1,0,0,0,286,0,0,1718960752569,4051,4054,4054,4058,4056,4053,18,,,,,,,0,0,0,14.00,-4.00,-1491.00,0.00,0.00,0.00,6,57.00,13.00,8.19,0.00,0.00,-13.00,0,,,100,38,13,2,0,0,0,2,0,,,,,0.0,0.0,0.0,0.0,0.0,0.0,-1
42.323414,117.204576,6.30,0.00,1.50,0.83,6.30,6.30,1.81,0.83,3031,2024-06-21 09:05:52.974,2024-06-21 17:05:52.974,17,0,0,25.691,42.323409,117.204569,0.00,0.00,-1.50,-2.40,0.00,-149.00,0,1,0,95,91,-756,5180,25691,2932.50,36,P-GPS,1,0,0,0,289,0,0,1718960752974,4051,4054,4054,4058,4056,4053,18,,,,,,,0,0,0,24.00,0.00,-1490.00,0.00,0.00,0.00,6,63.00,15.00,8.31,0.00,0.00,-15.00,0,,,100,38,13,2,0,0,0,2,0,,,,,0.0,0.0,0.0,0.0,0.0,0.0,-1
42.323414,117.204576,6.30,0.00,1.50,0.83,6.30,6.30,1.81,0.83,3229,2024-06-21 09:05:53.173,2024-06-21 17:05:53.172,17,0,0,25.691,42.323409,117.204569,0.00,0.00,-1.50,-2.40,0.00,-149.00,0,1,0,95,91,-756,5180,25691,2932.50,36,P-GPS,1,0,0,0,294,0,0,1718960753172,4051,4054,4054,4058,4056,4053,18,,,,,,,0,0,0,24.00,0.00,-1490.00,0.00,0.00,0.00,6,63.00,15.00,8.31,0.00,0.00,-15.00,0,,,100,38,13,2,0,0,0,2,0,,,,,0.0,0.0,0.0,0.0,0.0,0.0,-1
42.323414,117.204576,6.80,0.00,1.50,0.82,6.80,6.80,1.81,0.83,3332,2024-06-21 09:05:53.275,2024-06-21 17:05:53.275,17,0,0,25.691,42.323409,117.204569,0.00,0.00,-1.50,-2.30,-0.10,-148.90,0,1,0,95,91,-756,5180,25691,2932.50,36,P-GPS,1,0,0,0,300,0,0,1718960753275,4051,4054,4054,4058,4056,4053,18,,,,,,,0,0,0,23.00,-1.00,-1489.00,0.00,0.00,0.00,6,68.00,15.00,8.21,0.00,0.00,-15.00,0,,,100,38,13,2,0,0,0,2,0,,,,,0.0,0.0,0.0,0.0,0.0,0.0,-1
42.323414,117.204575,7.20,0.00,1.50,0.80,7.20,7.20,1.81,0.83,3635,2024-06-21 09:05:53.579,2024-06-21 17:05:53.578,17,0,0,25.691,42.323409,117.204569,0.00,0.00,-1.50,-1.70,-0.70,-149.00,0,1,0,95,91,-756,5180,25691,2932.50,36,P-GPS,1,0,0,0,323,0,0,1718960753578,4051,4054,4054,4058,4056,4053,18,,,,,,,0,0,0,17.00,-7.00,-1490.00,0.00,0.00,0.00,6,72.00,15.00,7.95,0.00,0.00,-15.00,0,,,100,38,13,2,0,0,0,2,0,,,,,0.0,0.0,0.0,0.0,0.0,0.0,-1
42.323414,117.204575,7.20,0.00,1.50,0.80,7.20,7.20,1.81,0.83,4240,2024-06-21 09:05:54.183,2024-06-21 17:05:54.183,17,0,0,25.691,42.323409,117.204569,0.00,0.00,-1.50,-1.70,-0.70,-149.00,0,1,0,95,91,-756,5180,25691,2932.50,36,P-GPS,1,0,0,0,316,0,0,1718960754183,4051,4054,4054,4058,4056,4053,18,,,,,,,0,0,0,17.00,-7.00,-1490.00,0.00,0.00,0.00,6,72.00,15.00,7.95,0.00,0.00,-15.00,0,,,100,30,13,2,0,0,0,2,0,,,,,0.0,0.0,0.0,0.0,0.0,0.0,-1
42.323414,117.204574,8.40,0.00,1.70,0.74,8.40,8.40,1.81,0.83,4339,2024-06-21 09:05:54.282,2024-06-21 17:05:54.282,17,0,0,25.691,42.323409,117.204569,0.00,0.00,-1.70,-1.90,-0.50,-149.10,0,1,0,95,91,-756,5180,25691,2932.50,36,P-GPS,1,0,0,0,318,0,0,1718960754282,4051,4054,4054,4058,4056,4053,18,,,,,,,0,0,0,19.00,-5.00,-1491.00,0.00,0.00,0.00,6,84.00,17.00,7.38,0.00,0.00,-17.00,0,,,100,30,13,2,0,0,0,2,0,,,,,0.0,0.0,0.0,0.0,0.0,0.0,-1
42.323414,117.204574,8.70,0.00,1.60,0.72,8.70,8.70,1.81,0.83,4545,2024-06-21 09:05:54.488,2024-06-21 17:05:54.488,17,0,0,25.691,42.323409,117.204569,0.00,0.00,-1.60,-1.80,-1.00,-149.00,0,1,0,95,91,-756,5180,25691,2932.50,36,P-GPS,1,0,0,0,315,0,0,1718960754488,4051,4054,4054,4058,4056,4053,18,,,,,,,0,0,0,18.00,-10.00,-1490.00,0.00,0.00,0.00,6,87.00,16.00,7.20,0.00,0.00,-16.00,0,,,100,30,13,2,0,0,0,2,0,,,,,0.0,0.0,0.0,0.0,0.0,0.0,-1
42.323414,117.204574,9.00,0.00,1.50,0.71,9.00,9.00,1.81,0.83,4744,2024-06-21 09:05:54.687,2024-06-21 17:05:54.687,17,0,0,25.691,42.323409,117.204569,0.00,0.00,-1.50,-1.50,-0.90,-149.00,0,1,0,95,91,-756,5180,25691,2932.50,36,P-GPS,1,0,0,0,306,0,0,1718960754687,4051,4054,4054,4058,4056,4053,18,,,,,,,0,0,0,15.00,-9.00,-1490.00,0.00,0.00,0.00,6,90.00,15.00,7.07,0.00,0.00,-15.00,0,,,100,30,13,2,0,0,0,2,0,,,,,0.0,0.0,0.0,0.0,0.0,0.0,-1
42.323414,117.204574,9.20,0.00,1.60,0.70,9.20,9.20,1.81,0.83,4844,2024-06-21 09:05:54.787,2024-06-21 17:05:54.787,17,0,0,25.691,42.323409,117.204569,0.00,0.00,-1.60,-1.50,-0.80,-149.00,0,1,0,95,91,-756,5180,25691,2932.50,36,P-GPS,1,0,0,0,307,0,0,1718960754787,4051,4054,4054,4058,4056,4053,18,,,,,,,0,0,0,15.00,-8.00,-1490.00,0.00,0.00,0.00,6,92.00,16.00,6.99,0.00,0.00,-16.00,0,,,100,30,13,2,0,0,0,2,0,,,,,0.0,0.0,0.0,0.0,0.0,0.0,-1
42.323414,117.204574,9.40,0.00,1.50,0.69,9.40,9.40,1.81,0.83,4946,2024-06-21 09:05:54.889,2024-06-21 17:05:54.889,17,0,0,25.691,42.323409,117.204569,0.00,0.00,-1.50,-1.50,-0.60,-149.00,0,1,0,95,91,-756,5180,25691,2932.50,36,P-GPS,1,0,0,0,311,0,0,1718960754889,4051,4054,4054,4058,4056,4053,18,,,,,,,0,0,0,15.00,-6.00,-1490.00,0.00,0.00,0.00,6,94.00,15.00,6.89,0.00,0.00,-15.00,0,,,100,30,13,2,0,0,0,2,0,,,,,0.0,0.0,0.0,0.0,0.0,0.0,-1
42.323414,117.204574,9.70,0.00,1.60,0.67,9.70,9.70,1.81,0.83,5149,2024-06-21 09:05:55.092,2024-06-21 17:05:55.092,17,0,0,25.691,42.323409,117.204569,0.00,0.00,-1.60,-1.70,-0.70,-149.10,0,1,0,95,91,-756,5180,25691,2932.50,36,P-GPS,1,0,0,0,294,0,0,1718960755092,4051,4054,4054,4058,4056,4053,18,,,,,,,0,0,0,17.00,-7.00,-1491.00,0.00,0.00,0.00,6,97.00,16.00,6.74,0.00,0.00,-16.00,0,,,100,30,13,2,0,0,0,2,0,,,,,0.0,0.0,0.0,0.0,0.0,0.0,-1
42.323414,117.204574,10.00,0.00,1.50,0.66,10.00,10.00,1.81,0.83,5348,2024-06-21 09:05:55.292,2024-06-21 17:05:55.291,17,0,0,25.691,42.323409,117.204569,0.00,0.00,-1.50,-2.10,-0.40,-149.10,0,1,0,95,91,-756,5180,25691,2932.50,36,P-GPS,1,0,0,0,287,0,0,1718960755291,4051,4054,4054,4058,4056,4053,18,,,,,,,0,0,0,21.00,-4.00,-1491.00,0.00,0.00,0.00,6,100.00,15.00,6.60,0.00,0.00,-15.00,0,,,100,30,13,2,0,0,0,2,0,,,,,0.0,0.0,0.0,0.0,0.0,0.0,-1
42.323414,117.204574,10.20,0.00,1.50,0.65,10.20,10.20,1.81,0.83,5453,2024-06-21 09:05:55.396,2024-06-21 17:05:55.396,17,0,0,25.691,42.323409,117.204569,0.00,0.00,-1.50,-2.10,-0.30,-149.10,0,1,0,95,91,-756,5180,25691,2932.50,36,P-GPS,1,0,0,0,294,0,0,1718960755396,4051,4054,4054,4058,4056,4053,18,,,,,,,0,0,0,21.00,-3.00,-1491.00,0.00,0.00,0.00,6,102.00,15.00,6.52,0.00,0.00,-15.00,0,,,100,27,13,2,0,0,0,2,0,,,,,0.0,0.0,0.0,0.0,0.0,0.0,-1
42.323413,117.204574,10.70,0.00,1.50,0.62,10.70,10.70,1.81,0.83,5753,2024-06-21 09:05:55.697,2024-06-21 17:05:55.696,17,0,0,25.691,42.323409,117.204569,0.00,0.00,-1.50,-1.30,0.00,-149.00,0,1,0,95,91,-756,5180,25691,2932.50,36,P-GPS,1,0,0,0,292,0,0,1718960755696,4051,4054,4054,4058,4056,4053,18,,,,,,,0,0,0,13.00,0.00,-1490.00,0.00,0.00,0.00,6,107.00,15.00,6.21,0.00,0.00,-15.00,0,,,100,27,13,2,0,0,0,2,0,,,,,0.0,0.0,0.0,0.0,0.0,0.0,-1
42.323413,117.204574,11.00,0.00,1.50,0.60,11.00,11.00,1.81,0.83,5958,2024-06-21 09:05:55.901,2024-06-21 17:05:55.901,17,0,0,25.691,42.323409,117.204569,0.00,0.00,-1.50,-1.20,0.30,-149.00,0,1,0,95,91,-756,5180,25691,2932.50,36,P-GPS,1,0,0,0,286,0,0,1718960755901,4051,4054,4054,4058,4056,4053,18,,,,,,,0,0,0,12.00,3.00,-1490.00,0.00,0.00,0.00,6,110.00,15.00,5.99,0.00,0.00,-15.00,0,,,100,27,13,2,0,0,0,2,0,,,,,0.0,0.0,0.0,0.0,0.0,0.0,-1
42.323413,117.204574,11.10,0.00,1.50,0.59,11.10,11.10,1.81,0.83,6058,2024-06-21 09:05:56.001,2024-06-21 17:05:56.001,17,0,0,25.691,42.323409,117.204569,0.00,0.00,-1.50,-1.10,0.40,-149.10,0,1,0,95,91,-756,5180,25691,2932.50,36,P-GPS,1,0,0,0,296,0,0,1718960756001,4051,4054,4054,4058,4056,4053,18,,,,,,,0,0,0,11.00,4.00,-1491.00,0.00,0.00,0.00,6,111.00,15.00,5.88,0.00,0.00,-15.00,0,,,100,27,13,2,0,0,0,2,0,,,,,0.0,0.0,0.0,0.0,0.0,0.0,-1
42.323413,117.204574,11.10,0.00,1.50,0.59,11.10,11.10,1.81,0.83,6158,2024-06-21 09:05:56.102,2024-06-21 17:05:56.101,17,0,0,25.691,42.323409,117.204569,0.00,0.00,-1.50,-1.10,0.40,-149.10,0,1,0,95,91,-756,5180,25691,2932.50,36,P-GPS,1,0,0,0,294,0,0,1718960756101,4051,4054,4054,4058,4056,4053,18,,,,,,,0,0,0,11.00,4.00,-1491.00,0.00,0.00,0.00,6,111.00,15.00,5.88,0.00,0.00,-15.00,0,,,100,27,13,2,0,0,0,2,0,,,,,0.0,0.0,0.0,0.0,0.0,0.0,-1
42.323413,117.204573,11.50,0.00,1.50,0.57,11.50,11.50,1.81,0.83,6259,2024-06-21 09:05:56.203,2024-06-21 17:05:56.202,17,0,0,25.691,42.323409,117.204569,0.00,0.00,-1.50,-1.20,0.30,-149.00,0,1,0,95,91,-756,5180,25691,2932.50,36,P-GPS,1,0,0,0,301,0,0,1718960756202,4051,4054,4054,4058,4056,4053,18,,,,,,,0,0,0,12.00,3.00,-1490.00,0.00,0.00,0.00,6,115.00,15.00,5.71,0.00,0.00,-15.00,0,,,100,27,13,2,0,0,0,2,0,,,,,0.0,0.0,0.0,0.0,0.0,0.0,-1
42.323413,117.204573,11.60,0.00,1.50,0.56,11.60,11.60,1.81,0.83,6359,2024-06-21 09:05:56.303,2024-06-21 17:05:56.302,17,0,0,25.691,42.323409,117.204569,0.00,0.00,-1.50,-1.10,0.30,-149.00,0,1,0,95,91,-756,5180,25691,2932.50,36,P-GPS,1,0,0,0,308,0,0,1718960756302,4051,4054,4054,4058,4056,4053,18,,,,,,,0,0,0,11.00,3.00,-1490.00,0.00,0.00,0.00,6,116.00,15.00,5.64,0.00,0.00,-15.00,0,,,100,27,13,2,0,0,0,2,0,,,,,0.0,0.0,0.0,0.0,0.0,0.0,-1
42.323413,117.204573,12.10,0.00,1.60,0.55,12.10,12.10,1.81,0.83,6663,2024-06-21 09:05:56.606,2024-06-21 17:05:56.606,17,0,0,25.691,42.323409,117.204569,0.00,0.00,-1.60,-0.80,0.60,-149.00,0,1,0,95,91,-756,5180,25691,2932.50,36,P-GPS,1,0,0,0,294,0,0,1718960756606,4051,4054,4054,4058,4056,4053,18,,,,,,,0,0,0,8.00,6.00,-1490.00,0.00,0.00,0.00,6,121.00,16.00,5.51,0.00,0.00,-16.00,0,,,100,27,13,2,0,0,0,2,0,,,,,0.0,0.0,0.0,0.0,0.0,0.0,-1
42.323413,117.204573,12.40,0.00,1.60,0.54,12.40,12.40,1.81,0.83,6863,2024-06-21 09:05:56.807,2024-06-21 17:05:56.807,17,0,0,25.691,42.323409,117.204569,0.00,0.00,-1.60,-1.30,0.60,-149.00,0,1,0,95,91,-756,5180,25691,2932.50,36,P-GPS,1,0,0,0,261,0,0,1718960756806,4051,4054,4054,4058,4056,4053,18,,,,,,,0,0,0,13.00,6.00,-1490.00,0.00,0.00,0.00,6,124.00,16.00,5.36,0.00,0.00,-16.00,0,,,100,27,13,2,0,0,0,2,0,,,,,0.0,0.0,0.0,0.0,0.0,0.0,-1
42.323413,117.204573,12.80,0.00,1.50,0.53,12.80,12.80,1.81,0.83,7065,2024-06-21 09:05:57.008,2024-06-21 17:05:57.008,17,0,0,25.691,42.323409,117.204569,0.00,0.00,-1.50,-1.90,0.50,-149.10,0,1,0,95,91,-756,5180,25691,2932.50,36,P-GPS,1,0,0,0,258,0,0,1718960757008,4051,4054,4054,4058,4056,4053,18,,,,,,,0,0,0,19.00,5.00,-1491.00,0.00,0.00,0.00,6,128.00,15.00,5.26,0.00,0.00,-15.00,0,,,100,27,13,2,0,0,0,2,0,,,,,0.0,0.0,0.0,0.0,0.0,0.0,-1
42.323413,117.204572,13.10,0.00,1.30,0.52,13.10,13.10,1.81,0.83,7268,2024-06-21 09:05:57.211,2024-06-21 17:05:57.211,17,0,0,25.691,42.323409,117.204569,0.00,0.00,-1.30,-1.80,0.30,-149.10,0,1,0,95,91,-756,5180,25691,2932.50,36,P-GPS,1,0,0,0,245,0,0,1718960757211,4051,4054,4054,4058,4056,4053,18,,,,,,,0,0,0,18.00,3.00,-1491.00,0.00,0.00,0.00,6,131.00,13.00,5.21,0.00,0.00,-13.00,0,,,100,27,13,2,0,0,0,2,0,,,,,0.0,0.0,0.0,0.0,0.0,0.0,-1
42.323413,117.204572,13.30,0.00,1.20,0.51,13.30,13.30,1.81,0.83,7472,2024-06-21 09:05:57.415,2024-06-21 17:05:57.415,16,0,0,25.691,42.323409,117.204569,0.00,0.00,-1.20,-1.30,0.20,-149.10,0,1,0,95,91,-756,5180,25691,2932.50,36,P-GPS,1,0,0,0,174,0,0,1718960757415,4051,4054,4054,4058,4056,4053,18,,,,,,,0,0,0,13.00,2.00,-1491.00,0.00,0.00,0.00,6,133.00,12.00,5.08,0.00,0.00,-12.00,0,,,100,22,13,2,0,0,0,2,0,,,,,0.0,0.0,0.0,0.0,0.0,0.0,-1
42.323413,117.204571,13.70,0.00,0.40,0.49,13.70,13.70,1.81,0.83,7870,2024-06-21 09:05:57.813,2024-06-21 17:05:57.813,16,0,0,25.691,42.323409,117.204569,0.00,0.00,-0.40,-1.80,0.10,-149.10,0,1,0,95,91,-756,5180,25691,2932.50,36,P-GPS,1,0,0,0,0,0,0,1718960757813,4051,4054,4054,4058,4056,4053,18,,,,,,,0,0,0,18.00,1.00,-1491.00,0.00,0.00,0.00,6,137.00,4.00,4.90,0.00,0.00,-4.00,0,,,100,22,13,2,0,0,0,2,0,,,,,0.0,0.0,0.0,0.0,0.0,0.0,-1
42.323413,117.204570,13.70,0.00,0.00,0.50,13.70,13.70,1.81,0.83,8077,2024-06-21 09:05:58.020,2024-06-21 17:05:58.020,16,0,0,25.691,42.323409,117.204569,0.00,0.00,0.00,-1.30,-0.50,-149.10,0,1,0,95,91,-756,5180,25691,2932.50,36,P-GPS,1,0,0,0,0,0,0,1718960758020,4051,4054,4054,4058,4056,4053,18,,,,,,,0,0,0,13.00,-5.00,-1491.00,0.00,0.00,0.00,6,137.00,0.00,4.96,0.00,0.00,0.00,0,,,100,22,13,2,0,0,0,2,0,,,,,0.0,0.0,0.0,0.0,0.0,0.0,-1
42.323413,117.204570,13.70,0.00,0.00,0.50,13.70,13.70,1.81,0.83,8172,2024-06-21 09:05:58.115,2024-06-21 17:05:58.115,16,0,0,25.691,42.323409,117.204569,0.00,0.00,0.00,-1.30,-0.50,-149.10,0,1,0,95,91,-756,5180,25691,2932.50,36,P-GPS,1,0,0,0,0,0,0,1718960758115,4051,4054,4054,4058,4056,4053,18,,,,,,,0,0,0,13.00,-5.00,-1491.00,0.00,0.00,0.00,6,137.00,0.00,4.96,0.00,0.00,0.00,0,,,100,22,13,2,0,0,0,2,0,,,,,0.0,0.0,0.0,0.0,0.0,0.0,-1
42.323413,117.204570,13.70,0.00,0.00,0.50,13.70,13.70,1.81,0.83,8273,2024-06-21 09:05:58.217,2024-06-21 17:05:58.217,16,0,0,25.691,42.323409,117.204569,0.00,0.00,0.00,-1.30,-0.50,-149.10,0,1,0,95,91,-756,5180,25691,2932.50,36,P-GPS,1,0,0,0,0,0,0,1718960758216,4051,4054,4054,4058,4056,4053,18,,,,,,,0,0,0,13.00,-5.00,-1491.00,0.00,0.00,0.00,6,137.00,0.00,4.96,0.00,0.00,0.00,0,,,100,22,13,2,0,0,0,2,0,,,,,0.0,0.0,0.0,0.0,0.0,0.0,-1
42.323414,117.204570,13.70,0.00,0.14,0.53,13.70,13.70,1.81,0.83,8480,2024-06-21 09:05:58.423,2024-06-21 17:05:58.423,17,0,0,25.691,42.323409,117.204569,0.10,0.00,0.10,0.00,-1.90,-150.10,0,1,0,95,91,-756,5180,25691,2932.50,36,P-GPS,1,0,0,0,0,-298,0,1718960758423,4051,4054,4054,4058,4056,4053,18,,,,,,,0,0,0,-0.00,-19.00,-1501.00,0.00,0.00,0.00,6,137.00,1.41,5.34,1.00,0.00,1.00,0,,,100,27,13,2,0,0,0,2,0,,,,,0.0,0.0,0.0,0.0,0.0,0.0,-1
42.323414,117.204569,13.70,0.00,0.10,0.57,13.70,13.70,1.81,0.83,8682,2024-06-21 09:05:58.626,2024-06-21 17:05:58.625,17,0,0,25.691,42.323409,117.204569,0.10,0.00,0.00,-0.30,-1.10,-157.20,0,1,0,95,91,-756,5180,25691,2932.50,36,P-GPS,1,0,0,0,0,-257,0,1718960758625,4051,4054,4054,4058,4056,4053,18,,,,,,,0,0,0,3.00,-11.00,-1572.00,0.00,0.00,0.00,6,137.00,1.00,5.70,1.00,0.00,0.00,0,,,100,27,13,2,0,0,0,2,0,,,,,0.0,0.0,0.0,0.0,0.0,0.0,-1
42.323414,117.204570,13.70,0.00,0.14,0.60,13.70,13.70,1.81,0.83,8780,2024-06-21 09:05:58.724,2024-06-21 17:05:58.724,17,0,0,25.691,42.323409,117.204569,0.10,0.10,0.00,-1.20,-0.20,-162.10,0,1,0,95,91,-756,5180,25691,2932.50,36,P-GPS,1,0,0,0,0,-193,0,1718960758723,4051,4054,4054,4058,4056,4053,18,,,,,,,0,0,0,12.00,-2.00,-1621.00,0.00,0.00,0.00,6,137.00,1.41,5.95,1.00,1.00,0.00,0,,,100,27,13,2,0,0,0,2,0,,,,,0.0,0.0,0.0,0.0,0.0,0.0,-1
42.323415,117.204571,13.80,0.00,0.14,0.70,13.80,13.80,1.81,0.83,9285,2024-06-21 09:05:59.228,2024-06-21 17:05:59.228,17,0,0,25.691,42.323409,117.204569,0.00,0.10,-0.10,-4.10,-0.10,-171.60,0,1,0,95,91,-756,5180,25691,2932.50,36,P-GPS,1,0,0,0,0,321,0,1718960759228,4051,4054,4054,4058,4056,4053,18,,,,,,,0,0,0,41.00,-1.00,-1716.00,0.00,0.00,0.00,6,138.00,1.41,6.98,0.00,1.00,-1.00,0,,,100,29,13,2,0,0,0,2,0,,,,,0.0,0.0,0.0,0.0,0.0,0.0,-1
42.323415,117.204571,13.90,0.00,0.14,0.71,13.90,13.90,1.81,0.83,9384,2024-06-21 09:05:59.328,2024-06-21 17:05:59.327,17,0,0,25.691,42.323409,117.204569,0.00,0.10,-0.10,-3.50,0.00,-169.30,0,1,0,95,91,-756,5180,25691,2932.50,36,P-GPS,1,0,0,0,0,321,0,1718960759327,4051,4054,4054,4058,4056,4053,18,,,,,,,0,0,0,35.00,0.00,-1693.00,0.00,0.00,0.00,6,139.00,1.41,7.06,0.00,1.00,-1.00,0,,,100,29,13,2,0,0,0,2,0,,,,,0.0,0.0,0.0,0.0,0.0,0.0,-1
42.323415,117.204571,13.90,0.00,0.10,0.70,13.90,13.90,1.81,0.83,9585,2024-06-21 09:05:59.529,2024-06-21 17:05:59.528,17,0,0,25.691,42.323409,117.204569,0.00,0.10,0.00,-2.60,0.10,-159.50,0,1,0,95,91,-756,5180,25691,2932.50,36,P-GPS,1,0,0,0,0,321,0,1718960759528,4051,4054,4054,4058,4056,4053,18,,,,,,,0,0,0,26.00,1.00,-1595.00,0.00,0.00,0.00,6,139.00,1.00,7.05,0.00,1.00,0.00,0,,,100,29,13,2,0,0,0,2,0,,,,,0.0,0.0,0.0,0.0,0.0,0.0,-1
42.323415,117.204571,13.90,0.00,0.00,0.69,13.90,13.90,1.81,0.83,9887,2024-06-21 09:05:59.830,2024-06-21 17:05:59.830,16,0,0,25.691,42.323409,117.204569,0.00,0.00,0.00,-1.00,1.30,-142.90,0,1,0,95,91,-756,5180,25691,2932.50,36,P-GPS,1,0,0,0,0,298,0,1718960759830,4051,4054,4054,4058,4056,4053,18,,,,,,,0,0,0,10.00,13.00,-1429.00,0.00,0.00,0.00,6,139.00,0.00,6.89,0.00,0.00,0.00,0,,,100,29,13,2,0,0,0,2,0,,,,,0.0,0.0,0.0,0.0,0.0,0.0,-1
42.323415,117.204571,13.90,0.00,0.00,0.69,13.90,13.90,1.81,0.83,9993,2024-06-21 09:05:59.937,2024-06-21 17:05:59.936,17,0,0,25.691,42.323409,117.204569,0.00,0.00,0.00,-1.10,1.40,-137.70,0,1,0,95,91,-756,5180,25691,2932.50,36,P-GPS,1,0,0,0,0,296,0,1718960759936,4051,4054,4054,4058,4056,4053,18,,,,,,,0,0,0,11.00,14.00,-1377.00,0.00,0.00,0.00,6,139.00,0.00,6.90,0.00,0.00,0.00,0,,,100,30,13,2,0,0,0,2,0,,,,,0.0,0.0,0.0,0.0,0.0,0.0,-1
42.323415,117.204571,13.90,0.00,0.00,0.70,13.90,13.90,1.81,0.83,10089,2024-06-21 09:06:00.033,2024-06-21 17:06:00.032,17,0,0,25.691,42.323409,117.204569,0.00,0.00,0.00,-1.40,1.10,-132.60,0,1,0,95,91,-756,5180,25691,2932.50,36,P-GPS,1,0,0,0,0,296,0,1718960760032,4051,4054,4054,4058,4056,4053,18,,,,,,,0,0,0,14.00,11.00,-1326.00,0.00,0.00,0.00,6,139.00,0.00,6.97,0.00,0.00,0.00,0,,,100,30,13,2,0,0,0,2,0,,,,,0.0,0.0,0.0,0.0,0.0,0.0,-1
42.323415,117.204571,13.90,0.00,0.00,0.71,13.90,13.90,1.81,0.83,10191,2024-06-21 09:06:00.134,2024-06-21 17:06:00.134,16,0,0,25.691,42.323409,117.204569,0.00,0.00,0.00,-1.70,0.40,-127.70,0,1,0,95,91,-756,5180,25691,2932.50,36,P-GPS,1,0,0,0,0,293,0,1718960760134,4051,4054,4054,4058,4056,4053,18,,,,,,,0,0,0,17.00,4.00,-1277.00,0.00,0.00,0.00,6,139.00,0.00,7.09,0.00,0.00,0.00,0,,,100,30,13,2,0,0,0,2,0,,,,,0.0,0.0,0.0,0.0,0.0,0.0,-1
42.323416,117.204571,13.90,0.00,0.10,0.82,13.90,13.90,1.81,0.83,10796,2024-06-21 09:06:00.739,2024-06-21 17:06:00.739,16,0,0,25.691,42.323409,117.204569,0.10,0.00,0.00,-2.10,-1.90,-99.00,0,1,0,95,91,-756,5180,25691,2932.50,36,P-GPS,1,0,0,0,0,262,0,1718960760739,4051,4054,4054,4058,4056,4053,18,,,,,,,0,0,0,21.00,-19.00,-990.00,0.00,0.00,0.00,6,139.00,1.00,8.20,1.00,0.00,0.00,0,,,100,27,13,2,0,0,0,2,0,,,,,0.0,0.0,0.0,0.0,0.0,0.0,-1
42.323417,117.204571,13.90,0.00,0.10,0.87,13.90,13.90,1.81,0.87,11000,2024-06-21 09:06:00.944,2024-06-21 17:06:00.943,16,0,0,25.691,42.323409,117.204569,0.10,0.00,0.00,-1.40,-2.20,-86.80,0,1,0,95,91,-756,5180,25691,2932.50,36,P-GPS,1,0,0,0,0,259,0,1718960760943,4051,4054,4054,4058,4056,4053,18,,,,,,,0,0,0,14.00,-22.00,-868.00,0.00,0.00,0.00,6,139.00,1.00,8.66,1.00,0.00,0.00,0,,,100,27,13,2,0,0,0,2,0,,,,,0.0,0.0,0.0,0.0,0.0,0.0,-1
42.323417,117.204571,13.90,0.00,0.10,0.88,13.90,13.90,1.81,0.88,11203,2024-06-21 09:06:01.147,2024-06-21 17:06:01.146,16,0,0,25.691,42.323409,117.204569,0.10,0.00,0.00,-1.20,-2.30,-82.90,0,1,0,95,91,-756,5180,25691,2932.50,36,P-GPS,1,0,0,0,0,260,0,1718960761146,4051,4054,4054,4058,4056,4053,18,,,,,,,0,0,0,12.00,-23.00,-829.00,0.00,0.00,0.00,6,139.00,1.00,8.76,1.00,0.00,0.00,0,,,100,27,13,2,0,0,0,2,0,,,,,0.0,0.0,0.0,0.0,0.0,0.0,-1
42.323417,117.204571,13.90,0.00,0.10,0.90,13.90,13.90,1.81,0.90,11402,2024-06-21 09:06:01.346,2024-06-21 17:06:01.345,16,0,0,25.691,42.323409,117.204569,0.10,0.00,0.00,-1.20,-2.40,-75.10,0,1,0,95,91,-756,5180,25691,2932.50,36,P-GPS,1,0,0,0,0,163,0,1718960761345,4051,4054,4054,4058,4056,4053,18,,,,,,,0,0,0,12.00,-24.00,-751.00,0.00,0.00,0.00,6,139.00,1.00,8.96,1.00,0.00,0.00,0,,,100,27,13,2,0,0,0,2,0,,,,,0.0,0.0,0.0,0.0,0.0,0.0,-1
42.323417,117.204571,13.90,0.00,0.14,0.93,13.90,13.90,1.81,0.93,11608,2024-06-21 09:06:01.552,2024-06-21 17:06:01.551,16,0,0,25.691,42.323409,117.204569,0.10,0.00,0.10,-1.40,-2.70,-69.20,0,1,0,95,91,-756,5180,25691,2932.50,36,P-GPS,1,0,0,32,0,0,0,1718960761551,4051,4054,4054,4058,4056,4053,18,,,,,,,0,0,0,14.00,-27.00,-692.00,0.00,0.00,0.00,6,139.00,1.41,9.31,1.00,0.00,1.00,0,,,100,31,13,2,0,0,0,2,0,,,,,0.0,0.0,0.0,0.0,0.0,0.0,-1
42.323417,117.204572,13.90,0.00,0.20,0.97,13.90,13.90,1.81,0.97,11907,2024-06-21 09:06:01.851,2024-06-21 17:06:01.850,16,0,0,25.691,42.323409,117.204569,0.20,0.00,0.00,-1.90,2.20,-69.40,0,1,0,95,91,-756,5180,25691,2932.50,36,P-GPS,1,0,0,236,0,0,0,1718960761850,4051,4054,4054,4058,4056,4053,18,,,,,,,0,0,0,19.00,22.00,-694.00,0.00,0.00,0.00,6,139.00,2.00,9.73,2.00,0.00,0.00,0,,,100,31,13,2,0,0,0,2,0,,,,,0.0,0.0,0.0,0.0,0.0,0.0,-1
42.323418,117.204572,13.90,0.00,0.30,1.00,13.90,13.90,1.81,1.00,12007,2024-06-21 09:06:01.950,2024-06-21 17:06:01.950,16,0,0,25.691,42.323409,117.204569,0.30,0.00,0.00,-2.00,4.80,-69.40,0,1,0,95,91,-756,5180,25691,2932.50,36,P-GPS,1,0,0,282,0,0,0,1718960761950,4051,4054,4054,4058,4056,4053,18,,,,,,,0,0,0,20.00,48.00,-694.00,0.00,0.00,0.00,6,139.00,3.00,10.02,3.00,0.00,0.00,0,,,100,31,13,2,0,0,0,2,0,,,,,0.0,0.0,0.0,0.0,0.0,0.0,-1
42.323419,117.204572,13.90,0.00,0.61,1.11,13.90,13.90,1.81,1.11,12209,2024-06-21 09:06:02.153,2024-06-21 17:06:02.152,16,0,0,25.691,42.323409,117.204569,0.60,0.10,0.00,-1.80,9.90,-69.40,0,1,0,95,91,-756,5180,25691,2932.50,36,P-GPS,1,0,0,279,0,0,0,1718960762152,4051,4054,4054,4058,4056,4053,18,,,,,,,0,0,0,18.00,99.00,-694.00,0.00,0.00,0.00,6,139.00,6.08,11.13,6.00,1.00,0.00,0,,,100,31,13,2,0,0,0,2,0,,,,,0.0,0.0,0.0,0.0,0.0,0.0,-1
42.323419,117.204573,13.90,0.00,0.82,1.21,13.90,13.90,1.81,1.21,12311,2024-06-21 09:06:02.254,2024-06-21 17:06:02.254,16,0,0,25.691,42.323409,117.204569,0.80,0.20,0.00,-1.60,11.40,-69.50,0,1,0,95,91,-756,5180,25691,2932.50,36,P-GPS,1,0,0,266,0,0,0,1718960762254,4051,4054,4054,4058,4056,4053,18,,,,,,,0,0,0,16.00,114.00,-695.00,0.00,0.00,0.00,6,139.00,8.25,12.08,8.00,2.00,0.00,0,,,100,31,13,2,0,0,0,2,0,,,,,0.0,0.0,0.0,0.0,0.0,0.0,-1
42.323420,117.204573,13.90,0.00,1.02,1.32,13.90,13.90,1.81,1.32,12413,2024-06-21 09:06:02.356,2024-06-21 17:06:02.356,16,0,0,25.691,42.323409,117.204569,1.00,0.20,0.00,-1.20,11.60,-69.40,0,1,0,95,91,-756,5180,25691,2932.50,36,P-GPS,1,0,0,253,0,0,0,1718960762356,4051,4054,4054,4058,4056,4053,18,,,,,,,0,0,0,12.00,116.00,-694.00,0.00,0.00,0.00,6,139.00,10.20,13.23,10.00,2.00,0.00,0,,,100,31,13,2,0,0,0,2,0,,,,,0.0,0.0,0.0,0.0,0.0,0.0,-1
42.323429,117.204576,13.90,0.00,1.96,2.28,13.90,13.90,1.96,2.28,12919,2024-06-21 09:06:02.862,2024-06-21 17:06:02.862,17,0,0,25.691,42.323409,117.204569,1.90,0.50,0.00,-0.30,5.20,-69.20,0,1,0,95,91,-756,5180,25691,2932.50,36,P-GPS,1,0,0,154,0,0,0,1718960762862,4051,4054,4054,4058,4056,4053,18,,,,,,,0,0,0,3.00,52.00,-692.00,0.00,0.00,0.00,6,139.00,19.65,22.84,19.00,5.00,0.00,0,,,100,27,13,2,0,0,0,2,0,,,,,0.0,0.0,0.0,0.0,0.0,0.0,-1
42.323431,117.204576,13.90,0.00,2.06,2.52,13.90,13.90,2.06,2.52,13019,2024-06-21 09:06:02.963,2024-06-21 17:06:02.962,17,0,0,25.691,42.323409,117.204569,2.00,0.50,0.00,-0.40,4.00,-69.30,0,1,0,95,91,-756,5180,25691,2932.50,36,P-GPS,1,0,0,163,0,0,0,1718960762962,4051,4054,4054,4058,4056,4053,18,,,,,,,0,0,0,4.00,40.00,-693.00,0.00,0.00,0.00,6,139.00,20.62,25.23,20.00,5.00,0.00,0,,,100,27,13,2,0,0,0,2,0,,,,,0.0,0.0,0.0,0.0,0.0,0.0,-1
42.323433,117.204577,13.90,0.00,2.18,2.78,13.90,13.90,2.18,2.78,13121,2024-06-21 09:06:03.065,2024-06-21 17:06:03.064,17,0,0,25.691,42.323409,117.204569,2.10,0.60,0.00,-0.60,3.20,-69.30,0,1,0,95,91,-756,5180,25691,2932.50,36,P-GPS,1,0,0,182,0,0,0,1718960763064,4051,4054,4054,4058,4056,4053,18,,,,,,,0,0,0,6.00,32.00,-693.00,0.00,0.00,0.00,6,139.00,21.84,27.80,21.00,6.00,0.00,0,,,100,27,13,2,0,0,0,2,0,,,,,0.0,0.0,0.0,0.0,0.0,0.0,-1
42.323433,117.204577,13.90,0.00,2.18,2.78,13.90,13.90,2.18,2.78,13218,2024-06-21 09:06:03.161,2024-06-21 17:06:03.161,17,0,0,25.691,42.323409,117.204569,2.10,0.60,0.00,-0.60,3.20,-69.30,0,1,0,95,91,-756,5180,25691,2932.50,36,P-GPS,1,0,0,182,0,0,0,1718960763161,4051,4054,4054,4058,4056,4053,18,,,,,,,0,0,0,6.00,32.00,-693.00,0.00,0.00,0.00,6,139.00,21.84,27.80,21.00,6.00,0.00,0,,,100,27,13,2,0,0,0,2,0,,,,,0.0,0.0,0.0,0.0,0.0,0.0,-1
42.323464,117.204583,13.90,0.00,0.61,6.20,13.90,13.90,2.18,6.20,14833,2024-06-21 09:06:04.777,2024-06-21 17:06:04.776,16,0,0,25.691,42.323409,117.204569,0.60,0.10,0.00,1.00,-8.30,-69.20,0,1,0,95,91,-756,5180,25691,2932.50,36,P-GPS,1,0,0,202,0,0,0,1718960764776,4051,4054,4054,4058,4056,4053,18,,,,,,,0,0,0,-10.00,-83.00,-692.00,0.00,0.00,0.00,6,139.00,6.08,62.00,6.00,1.00,0.00,0,,,0,27,19,2,0,0,0,2,0,,,,,0.0,0.0,0.0,0.0,0.0,0.0,-1
42.323464,117.204584,13.90,0.00,0.61,6.28,13.90,13.90,2.18,6.28,14937,2024-06-21 09:06:04.880,2024-06-21 17:06:04.880,16,0,0,25.691,42.323409,117.204569,0.60,0.10,0.00,0.70,-4.70,-69.20,0,1,0,95,91,-756,5180,25691,2932.50,36,P-GPS,1,0,0,209,0,0,0,1718960764880,4051,4054,4054,4058,4056,4053,18,,,,,,,0,0,0,-7.00,-47.00,-692.00,0.00,0.00,0.00,6,139.00,6.08,62.83,6.00,1.00,0.00,0,,,0,13,19,2,0,0,0,2,0,,,,,0.0,0.0,0.0,0.0,0.0,0.0,-1
42.323465,117.204584,13.90,0.00,0.61,6.36,13.90,13.90,2.18,6.36,15036,2024-06-21 09:06:04.980,2024-06-21 17:06:04.979,16,0,0,25.691,42.323409,117.204569,0.60,0.10,0.00,0.20,-0.30,-69.20,0,1,0,95,91,-756,5180,25691,2932.50,36,P-GPS,1,0,0,218,0,0,0,1718960764979,4051,4054,4054,4058,4056,4053,18,,,,,,,0,0,0,-2.00,-3.00,-692.00,0.00,0.00,0.00,6,139.00,6.08,63.57,6.00,1.00,0.00,0,,,0,13,19,2,0,0,0,2,0,,,,,0.0,0.0,0.0,0.0,0.0,0.0,-1
42.323466,117.204585,13.90,0.00,0.63,6.46,13.90,13.90,2.18,6.46,15137,2024-06-21 09:06:05.080,2024-06-21 17:06:05.080,16,0,0,25.691,42.323409,117.204569,0.60,0.20,0.00,0.00,2.30,-69.20,0,1,0,95,91,-756,5180,25691,2932.50,36,P-GPS,1,0,0,220,0,0,0,1718960765080,4051,4054,4054,4058,4056,4053,18,,,,,,,0,0,0,-0.00,23.00,-692.00,0.00,0.00,0.00,6,139.00,6.32,64.62,6.00,2.00,0.00,0,,,0,13,19,2,0,0,0,2,0,,,,,0.0,0.0,0.0,0.0,0.0,0.0,-1
42.323466,117.204585,13.90,0.00,0.63,6.46,13.90,13.90,2.18,6.46,15237,2024-06-21 09:06:05.180,2024-06-21 17:06:05.180,16,0,0,25.691,42.323409,117.204569,0.60,0.20,0.00,0.00,2.30,-69.20,0,1,0,95,91,-756,5180,25691,2932.50,36,P-GPS,1,0,0,227,0,0,0,1718960765180,4051,4054,4054,4058,4056,4053,18,,,,,,,0,0,0,-0.00,23.00,-692.00,0.00,0.00,0.00,6,139.00,6.32,64.62,6.00,2.00,0.00,0,,,0,13,19,2,0,0,0,2,0,,,,,0.0,0.0,0.0,0.0,0.0,0.0,-1
42.323468,117.204586,13.90,0.00,0.95,6.73,13.90,13.90,2.18,6.73,15337,2024-06-21 09:06:05.281,2024-06-21 17:06:05.280,16,0,0,25.691,42.323409,117.204569,0.90,0.30,0.00,-0.40,4.90,-69.20,0,1,0,95,91,-756,5180,25691,2932.50,36,P-GPS,1,0,0,235,0,0,0,1718960765280,4051,4054,4054,4058,4056,4053,18,,,,,,,0,0,0,4.00,49.00,-692.00,0.00,0.00,0.00,6,139.00,9.49,67.28,9.00,3.00,0.00,0,,,0,13,19,2,0,0,0,2,0,,,,,0.0,0.0,0.0,0.0,0.0,0.0,-1
42.323469,117.204587,14.00,0.00,1.14,6.87,14.00,14.00,2.18,6.87,15451,2024-06-21 09:06:05.394,2024-06-21 17:06:05.394,16,0,0,25.691,42.323409,117.204569,1.10,0.30,0.00,-0.60,5.10,-69.20,0,1,0,95,91,-756,5180,25691,2932.50,36,P-GPS,1,0,0,239,0,0,0,1718960765394,4051,4054,4054,4058,4056,4053,18,,,,,,,0,0,0,6.00,51.00,-692.00,0.00,0.00,0.00,6,140.00,11.40,68.71,11.00,3.00,0.00,0,,,0,48,19,2,0,0,0,2,0,,,,,0.0,0.0,0.0,0.0,0.0,0.0,-1
42.323471,117.204588,14.00,0.00,1.26,7.08,14.00,14.00,2.18,7.08,15540,2024-06-21 09:06:05.483,2024-06-21 17:06:05.483,17,0,0,25.691,42.323409,117.204569,1.20,0.40,0.00,-0.60,5.20,-69.20,0,1,0,95,91,-756,5180,25691,2932.50,36,P-GPS,1,0,0,231,0,0,0,1718960765483,4051,4054,4054,4058,4056,4053,18,,,,,,,0,0,0,6.00,52.00,-692.00,0.00,0.00,0.00,6,140.00,12.65,70.78,12.00,4.00,0.00,0,,,0,48,19,2,0,0,0,2,0,,,,,0.0,0.0,0.0,0.0,0.0,0.0,-1
42.323473,117.204589,14.00,0.00,1.46,7.27,14.00,14.00,2.18,7.27,15642,2024-06-21 09:06:05.585,2024-06-21 17:06:05.585,17,0,0,25.691,42.323409,117.204569,1.40,0.40,0.00,-0.60,5.10,-69.20,0,1,0,95,91,-756,5180,25691,2932.50,36,P-GPS,1,0,0,228,0,0,0,1718960765585,4051,4054,4054,4058,4056,4053,18,,,,,,,0,0,0,6.00,51.00,-692.00,0.00,0.00,0.00,6,140.00,14.56,72.74,14.00,4.00,0.00,0,,,100,48,19,2,0,0,0,2,0,,,,,0.0,0.0,0.0,0.0,0.0,0.0,-1
42.323475,117.204590,14.00,0.00,1.58,7.53,14.00,14.00,2.18,7.53,15742,2024-06-21 09:06:05.685,2024-06-21 17:06:05.685,17,0,0,25.691,42.323409,117.204569,1.50,0.50,0.00,-0.50,4.70,-69.20,0,1,0,95,91,-756,5180,25691,2932.50,36,P-GPS,1,0,0,229,0,0,0,1718960765685,4051,4054,4054,4058,4056,4053,18,,,,,,,0,0,0,5.00,47.00,-692.00,0.00,0.00,0.00,6,140.00,15.81,75.33,15.00,5.00,0.00,0,,,100,48,19,2,0,0,0,2,0,,,,,0.0,0.0,0.0,0.0,0.0,0.0,-1
42.323477,117.204591,14.00,0.00,1.77,7.77,14.00,14.00,2.18,7.77,15845,2024-06-21 09:06:05.788,2024-06-21 17:06:05.788,17,0,0,25.691,42.323409,117.204569,1.70,0.50,0.00,-0.50,4.20,-69.20,0,1,0,95,91,-756,5180,25691,2932.50,36,P-GPS,1,0,0,233,0,0,0,1718960765788,4051,4054,4054,4058,4056,4053,18,,,,,,,0,0,0,5.00,42.00,-692.00,0.00,0.00,0.00,6,140.00,17.72,77.71,17.00,5.00,0.00,0,,,100,48,19,2,0,0,0,2,0,,,,,0.0,0.0,0.0,0.0,0.0,0.0,-1
42.323479,117.204592,14.00,0.00,1.90,8.01,14.00,14.00,2.18,8.01,15949,2024-06-21 09:06:05.892,2024-06-21 17:06:05.892,17,0,0,25.691,42.323409,117.204569,1.80,0.60,0.00,-0.40,3.70,-69.10,0,1,0,95,91,-756,5180,25691,2932.50,36,P-GPS,1,0,0,239,0,0,0,1718960765892,4051,4054,4054,4058,4056,4053,18,,,,,,,0,0,0,4.00,37.00,-691.00,0.00,0.00,0.00,6,140.00,18.97,80.15,18.00,6.00,0.00,0,,,100,84,19,2,0,0,0,2,0,,,,,0.0,0.0,0.0,0.0,0.0,0.0,-1
42.323482,117.204593,14.00,0.00,1.99,8.33,14.00,14.00,2.18,8.33,16045,2024-06-21 09:06:05.989,2024-06-21 17:06:05.988,17,0,0,25.691,42.323409,117.204569,1.90,0.60,0.00,-0.10,3.40,-69.10,0,1,0,95,91,-756,5180,25691,2932.50,36,P-GPS,1,0,0,235,0,0,0,1718960765988,4051,4054,4054,4058,4056,4053,18,,,,,,,0,0,0,1.00,34.00,-691.00,0.00,0.00,0.00,6,140.00,19.92,83.33,19.00,6.00,0.00,0,,,100,84,19,2,0,0,0,2,0,,,,,0.0,0.0,0.0,0.0,0.0,0.0,-1
42.323485,117.204594,14.00,0.00,2.21,8.67,14.00,14.00,2.21,8.67,16146,2024-06-21 09:06:06.089,2024-06-21 17:06:06.089,17,0,0,25.691,42.323409,117.204569,2.10,0.70,0.00,0.00,3.30,-69.20,0,1,0,95,91,-756,5180,25691,2932.50,36,P-GPS,1,0,0,227,0,0,0,1718960766089,4051,4054,4054,4058,4056,4053,18,,,,,,,0,0,0,-0.00,33.00,-692.00,0.00,0.00,0.00,6,140.00,22.14,86.66,21.00,7.00,0.00,0,,,100,84,19,2,0,0,0,2,0,,,,,0.0,0.0,0.0,0.0,0.0,0.0,-1
42.323485,117.204594,14.00,0.00,2.21,8.67,14.00,14.00,2.21,8.67,16246,2024-06-21 09:06:06.189,2024-06-21 17:06:06.189,17,0,0,25.691,42.323409,117.204569,2.10,0.70,0.00,0.00,3.30,-69.20,0,1,0,95,91,-756,5180,25691,2932.50,36,P-GPS,1,0,0,231,0,0,0,1718960766189,4051,4054,4054,4058,4056,4053,18,,,,,,,0,0,0,-0.00,33.00,-692.00,0.00,0.00,0.00,6,140.00,22.14,86.66,21.00,7.00,0.00,0,,,100,84,19,2,0,0,0,2,0,,,,,0.0,0.0,0.0,0.0,0.0,0.0,-1
42.323490,117.204596,13.90,0.00,2.41,9.34,14.00,14.00,2.41,9.34,16348,2024-06-21 09:06:06.291,2024-06-21 17:06:06.291,17,0,0,25.691,42.323409,117.204569,2.30,0.70,0.10,0.00,2.50,-69.20,0,1,0,95,91,-756,5180,25691,2932.50,36,P-GPS,1,0,0,231,0,0,0,1718960766291,4051,4054,4054,4058,4056,4053,18,,,,,,,0,0,0,-0.00,25.00,-692.00,0.00,0.00,0.00,6,139.00,24.06,93.36,23.00,7.00,1.00,0,,,100,84,19,2,0,0,0,2,0,,,,,0.0,0.0,0.0,0.0,0.0,0.0,-1
42.323493,117.204597,13.90,0.00,2.53,9.64,14.00,14.00,2.53,9.64,16451,2024-06-21 09:06:06.395,2024-06-21 17:06:06.394,17,0,0,25.691,42.323409,117.204569,2.40,0.80,0.10,0.00,2.00,-69.20,0,1,0,95,91,-756,5180,25691,2932.50,36,P-GPS,1,0,0,226,0,0,0,1718960766394,4051,4054,4054,4058,4056,4053,18,,,,,,,0,0,0,-0.00,20.00,-692.00,0.00,0.00,0.00,6,139.00,25.32,96.43,24.00,8.00,1.00,0,,,100,100,19,2,0,0,0,2,0,,,,,0.0,0.0,0.0,0.0,0.0,0.0,-1
42.323496,117.204599,13.90,0.00,2.63,10.01,14.00,14.00,2.63,10.01,16550,2024-06-21 09:06:06.493,2024-06-21 17:06:06.493,17,0,0,25.691,42.323409,117.204569,2.50,0.80,0.20,0.10,1.40,-69.20,0,1,0,95,91,-756,5180,25691,2932.50,36,P-GPS,1,0,0,209,0,0,0,1718960766493,4051,4054,4054,4058,4056,4053,18,,,,,,,0,0,0,-1.00,14.00,-692.00,0.00,0.00,0.00,6,139.00,26.32,100.07,25.00,8.00,2.00,0,,,100,100,19,2,0,0,0,2,0,,,,,0.0,0.0,0.0,0.0,0.0,0.0,-1
42.323499,117.204600,13.80,0.00,2.63,10.34,14.00,14.00,2.63,10.34,16652,2024-06-21 09:06:06.596,2024-06-21 17:06:06.595,17,0,0,25.691,42.323409,117.204569,2.50,0.80,0.10,0.30,0.80,-69.30,0,1,0,95,91,-756,5180,25691,2932.50,36,P-GPS,1,0,0,203,0,0,0,1718960766595,4051,4054,4054,4058,4056,4053,18,,,,,,,0,0,0,-3.00,8.00,-693.00,0.00,0.00,0.00,6,138.00,26.27,103.38,25.00,8.00,1.00,0,,,100,100,19,2,0,0,0,2,0,,,,,0.0,0.0,0.0,0.0,0.0,0.0,-1
42.323502,117.204601,13.80,0.00,2.72,10.69,14.00,14.00,2.72,10.69,16750,2024-06-21 09:06:06.694,2024-06-21 17:06:06.693,17,0,0,25.691,42.323409,117.204569,2.60,0.80,0.10,0.40,0.00,-69.30,0,1,0,95,91,-756,5180,25691,2932.50,36,P-GPS,1,0,0,210,0,0,0,1718960766693,4051,4054,4054,4058,4056,4053,18,,,,,,,0,0,0,-4.00,0.00,-693.00,0.00,0.00,0.00,6,138.00,27.22,106.93,26.00,8.00,1.00,0,,,100,100,19,2,0,0,0,2,0,,,,,0.0,0.0,0.0,0.0,0.0,0.0,-1
42.323505,117.204602,13.80,0.00,2.72,11.02,14.00,14.00,2.72,11.02,16851,2024-06-21 09:06:06.795,2024-06-21 17:06:06.794,17,0,0,44.690,42.323409,117.204569,2.60,0.80,0.10,0.50,-0.70,-69.30,0,1,0,92,91,-35992,10569,44690,2921.50,36,P-GPS,1,0,0,213,0,0,0,1718960766794,4051,4054,4054,4058,4056,4053,18,,,,,,,0,0,0,-5.00,-7.00,-693.00,0.00,0.00,0.00,6,138.00,27.22,110.21,26.00,8.00,1.00,0,,,100,100,19,2,0,0,0,2,0,,,,,0.0,0.0,0.0,0.0,0.0,0.0,-1
42.323508,117.204603,13.80,0.00,2.82,11.37,14.00,14.00,2.82,11.37,16955,2024-06-21 09:06:06.899,2024-06-21 17:06:06.898,17,0,0,44.690,42.323409,117.204569,2.70,0.80,0.10,0.50,-1.30,-69.30,0,1,0,92,91,-35992,10569,44690,2921.50,36,P-GPS,1,0,0,205,0,0,0,1718960766898,4051,4054,4054,4058,4056,4053,18,,,,,,,0,0,0,-5.00,-13.00,-693.00,0.00,0.00,0.00,6,138.00,28.18,113.73,27.00,8.00,1.00,0,,,100,99,19,2,0,0,0,2,0,,,,,0.0,0.0,0.0,0.0,0.0,0.0,-1
42.323511,117.204604,13.80,0.00,2.85,11.71,14.00,14.00,2.85,11.71,17053,2024-06-21 09:06:06.997,2024-06-21 17:06:06.997,17,0,0,44.690,42.323409,117.204569,2.70,0.90,0.10,0.60,-1.60,-69.30,0,1,0,92,91,-35992,10569,44690,2921.50,36,P-GPS,1,0,0,191,0,0,0,1718960766996,4051,4054,4054,4058,4056,4053,18,,,,,,,0,0,0,-6.00,-16.00,-693.00,0.00,0.00,0.00,6,138.00,28.48,117.05,27.00,9.00,1.00,0,,,100,99,19,2,0,0,0,2,0,,,,,0.0,0.0,0.0,0.0,0.0,0.0,-1
42.323514,117.204605,13.70,0.00,2.85,12.04,14.00,14.00,2.85,12.04,17155,2024-06-21 09:06:07.098,2024-06-21 17:06:07.098,17,0,0,44.690,42.323409,117.204569,2.70,0.90,0.10,0.60,-1.90,-69.30,0,1,0,92,91,-35992,10569,44690,2921.50,36,P-GPS,1,0,0,165,0,0,0,1718960767098,4051,4054,4054,4058,4056,4053,18,,,,,,,0,0,0,-6.00,-19.00,-693.00,0.00,0.00,0.00,6,137.00,28.48,120.44,27.00,9.00,1.00,0,,,100,99,19,2,0,0,0,2,0,,,,,0.0,0.0,0.0,0.0,0.0,0.0,-1
42.323514,117.204605,13.70,0.00,2.85,12.04,14.00,14.00,2.85,12.04,17254,2024-06-21 09:06:07.198,2024-06-21 17:06:07.197,17,0,0,44.690,42.323409,117.204569,2.70,0.90,0.10,0.60,-1.90,-69.30,0,1,0,92,91,-35992,10569,44690,2921.50,36,P-GPS,1,0,0,175,0,0,0,1718960767197,4051,4054,4054,4058,4056,4053,18,,,,,,,0,0,0,-6.00,-19.00,-693.00,0.00,0.00,0.00,6,137.00,28.48,120.44,27.00,9.00,1.00,0,,,100,99,19,2,0,0,0,2,0,,,,,0.0,0.0,0.0,0.0,0.0,0.0,-1
42.323519,117.204608,13.70,0.00,2.85,12.69,14.00,14.00,2.85,12.69,17355,2024-06-21 09:06:07.298,2024-06-21 17:06:07.298,17,0,0,44.690,42.323409,117.204569,2.70,0.90,0.00,0.50,-3.30,-69.30,0,1,0,92,91,-35992,10569,44690,2921.50,36,P-GPS,1,0,0,176,0,0,0,1718960767298,4051,4054,4054,4058,4056,4053,18,,,,,,,0,0,0,-5.00,-33.00,-693.00,0.00,0.00,0.00,6,137.00,28.46,126.87,27.00,9.00,0.00,0,,,100,99,19,2,0,0,0,2,0,,,,,0.0,0.0,0.0,0.0,0.0,0.0,-1
42.323522,117.204609,13.70,0.00,2.85,13.00,14.00,14.00,2.85,13.00,17459,2024-06-21 09:06:07.403,2024-06-21 17:06:07.402,17,0,0,44.690,42.323409,117.204569,2.70,0.90,0.00,0.40,-3.80,-69.30,0,1,0,92,91,-35992,10569,44690,2921.50,36,P-GPS,1,0,0,196,0,0,0,1718960767402,4051,4054,4054,4058,4056,4053,18,,,,,,,0,0,0,-4.00,-38.00,-693.00,0.00,0.00,0.00,6,137.00,28.46,129.97,27.00,9.00,0.00,0,,,100,99,19,2,0,0,0,2,0,,,,,0.0,0.0,0.0,0.0,0.0,0.0,-1
42.323525,117.204610,13.70,0.00,2.72,13.31,14.00,14.00,2.85,13.31,17558,2024-06-21 09:06:07.501,2024-06-21 17:06:07.501,17,0,0,44.690,42.323409,117.204569,2.60,0.80,0.00,0.30,-3.90,-69.30,0,1,0,92,91,-35992,10569,44690,2921.50,36,P-GPS,1,0,0,187,0,0,0,1718960767501,4051,4054,4054,4058,4056,4053,18,,,,,,,0,0,0,-3.00,-39.00,-693.00,0.00,0.00,0.00,6,137.00,27.20,133.12,26.00,8.00,0.00,0,,,100,99,19,2,0,0,0,2,0,,,,,0.0,0.0,0.0,0.0,0.0,0.0,-1
42.323527,117.204611,13.70,0.00,2.72,13.61,14.00,14.00,2.85,13.61,17659,2024-06-21 09:06:07.602,2024-06-21 17:06:07.602,17,0,0,44.690,42.323409,117.204569,2.60,0.80,0.00,0.20,-3.60,-69.30,0,1,0,92,91,-35992,10569,44690,2921.50,36,P-GPS,1,0,0,180,0,0,0,1718960767602,4051,4054,4054,4058,4056,4053,18,,,,,,,0,0,0,-2.00,-36.00,-693.00,0.00,0.00,0.00,6,137.00,27.20,136.13,26.00,8.00,0.00,0,,,100,99,19,2,0,0,0,2,0,,,,,0.0,0.0,0.0,0.0,0.0,0.0,-1
42.323530,117.204612,13.70,0.00,2.72,13.92,14.00,14.00,2.85,13.92,17760,2024-06-21 09:06:07.703,2024-06-21 17:06:07.703,17,0,0,44.690,42.323409,117.204569,2.60,0.80,0.00,0.20,-3.50,-69.30,0,1,0,92,91,-35992,10569,44690,2921.50,36,P-GPS,1,0,0,177,0,0,0,1718960767703,4051,4054,4054,4058,4056,4053,18,,,,,,,0,0,0,-2.00,-35.00,-693.00,0.00,0.00,0.00,6,137.00,27.20,139.25,26.00,8.00,0.00,0,,,100,99,19,2,0,0,0,2,0,,,,,0.0,0.0,0.0,0.0,0.0,0.0,-1
42.323533,117.204613,13.70,0.00,2.62,14.22,14.00,14.00,2.85,14.22,17859,2024-06-21 09:06:07.802,2024-06-21 17:06:07.802,17,0,0,44.569,42.323409,117.204569,2.50,0.80,0.00,0.00,-3.40,-69.20,0,1,0,92,91,-35693,10569,44569,2921.50,36,P-GPS,1,0,0,184,0,0,0,1718960767802,4051,4054,4054,4058,4056,4053,18,,,,,,,0,0,0,-0.00,-34.00,-692.00,0.00,0.00,0.00,6,137.00,26.25,142.25,25.00,8.00,0.00,0,,,100,99,19,2,0,0,0,2,0,,,,,0.0,0.0,0.0,0.0,0.0,0.0,-1
42.323535,117.204615,13.70,0.00,2.62,14.53,14.00,14.00,2.85,14.53,17964,2024-06-21 09:06:07.907,2024-06-21 17:06:07.907,17,0,0,44.569,42.323409,117.204569,2.50,0.80,0.00,0.00,-3.30,-69.20,0,1,0,92,91,-35693,10569,44569,2921.50,36,P-GPS,1,0,0,176,0,0,0,1718960767907,4051,4054,4054,4058,4056,4053,18,,,,,,,0,0,0,-0.00,-33.00,-692.00,0.00,0.00,0.00,6,137.00,26.25,145.28,25.00,8.00,0.00,0,,,100,100,19,2,0,0,0,2,0,,,,,0.0,0.0,0.0,0.0,0.0,0.0,-1
42.323538,117.204616,13.70,0.00,2.62,14.82,14.00,14.00,2.85,14.82,18063,2024-06-21 09:06:08.006,2024-06-21 17:06:08.006,17,0,0,44.569,42.323409,117.204569,2.50,0.80,0.00,0.00,-3.20,-69.20,0,1,0,92,91,-35693,10569,44569,2921.50,36,P-GPS,1,0,0,151,0,0,0,1718960768006,4051,4054,4054,4058,4056,4053,18,,,,,,,0,0,0,-0.00,-32.00,-692.00,0.00,0.00,0.00,6,137.00,26.25,148.15,25.00,8.00,0.00,0,,,100,100,19,2,0,0,0,2,0,,,,,0.0,0.0,0.0,0.0,0.0,0.0,-1
42.323540,117.204617,13.70,0.00,2.62,15.11,14.00,14.00,2.85,15.11,18166,2024-06-21 09:06:08.110,2024-06-21 17:06:08.109,17,0,0,44.569,42.323409,117.204569,2.50,0.80,0.00,0.00,-3.30,-69.30,0,1,0,92,91,-35693,10569,44569,2921.50,36,P-GPS,1,0,0,146,0,0,0,1718960768109,4051,4054,4054,4058,4056,4053,18,,,,,,,0,0,0,-0.00,-33.00,-693.00,0.00,0.00,0.00,6,137.00,26.25,151.11,25.00,8.00,0.00,0,,,100,100,19,2,0,0,0,2,0,,,,,0.0,0.0,0.0,0.0,0.0,0.0,-1
42.323540,117.204617,13.70,0.00,2.62,15.11,14.00,14.00,2.85,15.11,18262,2024-06-21 09:06:08.205,2024-06-21 17:06:08.205,17,0,0,44.569,42.323409,117.204569,2.50,0.80,0.00,0.00,-3.30,-69.30,0,1,0,92,91,-35693,10569,44569,2921.50,36,P-GPS,1,0,0,146,0,0,0,1718960768205,4051,4054,4054,4058,4056,4053,18,,,,,,,0,0,0,-0.00,-33.00,-693.00,0.00,0.00,0.00,6,137.00,26.25,151.11,25.00,8.00,0.00,0,,,100,100,19,2,0,0,0,2,0,,,,,0.0,0.0,0.0,0.0,0.0,0.0,-1
42.323545,117.204620,13.70,0.00,2.53,15.69,14.00,14.00,2.85,15.69,18366,2024-06-21 09:06:08.310,2024-06-21 17:06:08.309,17,0,0,44.569,42.323409,117.204569,2.40,0.80,0.00,0.20,-4.50,-69.30,0,1,0,92,91,-35693,10569,44569,2921.50,36,P-GPS,1,0,0,131,0,0,0,1718960768309,4051,4054,4054,4058,4056,4053,18,,,,,,,0,0,0,-2.00,-45.00,-693.00,0.00,0.00,0.00,6,137.00,25.30,156.93,24.00,8.00,0.00,0,,,100,100,19,2,0,0,0,2,0,,,,,0.0,0.0,0.0,0.0,0.0,0.0,-1
42.323547,117.204621,13.70,0.00,2.53,15.97,14.00,14.00,2.85,15.97,18465,2024-06-21 09:06:08.409,2024-06-21 17:06:08.408,17,0,0,44.569,42.323409,117.204569,2.40,0.80,0.00,0.30,-5.00,-69.30,0,1,0,92,91,-35693,10569,44569,2921.50,36,P-GPS,1,0,-3,134,0,0,0,1718960768408,4051,4054,4054,4058,4056,4053,18,,,,,,,0,0,0,-3.00,-50.00,-693.00,0.00,0.00,0.00,6,137.00,25.30,159.73,24.00,8.00,0.00,0,,,100,100,19,2,0,0,0,2,0,,,,,0.0,0.0,0.0,0.0,0.0,0.0,-1
42.323550,117.204622,13.70,0.00,2.44,16.26,14.00,14.00,2.85,16.26,18567,2024-06-21 09:06:08.511,2024-06-21 17:06:08.510,17,0,0,44.569,42.323409,117.204569,2.30,0.80,0.00,0.40,-5.40,-69.30,0,1,0,92,91,-35693,10569,44569,2921.50,36,P-GPS,1,0,0,87,0,0,0,1718960768510,4051,4054,4054,4058,4056,4053,18,,,,,,,0,0,0,-4.00,-54.00,-693.00,0.00,0.00,0.00,6,137.00,24.35,162.58,23.00,8.00,0.00,0,,,100,100,19,2,0,0,0,2,0,,,,,0.0,0.0,0.0,0.0,0.0,0.0,-1
42.323552,117.204623,13.70,0.00,2.44,16.52,14.00,14.00,2.85,16.52,18689,2024-06-21 09:06:08.632,2024-06-21 17:06:08.632,17,0,0,44.569,42.323409,117.204569,2.30,0.80,0.00,0.60,-5.80,-69.30,0,1,0,92,91,-35693,10569,44569,2921.50,36,P-GPS,1,0,0,100,0,0,0,1718960768632,4051,4054,4054,4058,4056,4053,18,,,,,,,0,0,0,-6.00,-58.00,-693.00,0.00,0.00,0.00,6,137.00,24.35,165.23,23.00,8.00,0.00,0,,,100,100,19,2,0,0,0,2,0,,,,,0.0,0.0,0.0,0.0,0.0,0.0,-1
42.323554,117.204624,13.70,0.00,2.34,16.79,14.00,14.00,2.85,16.79,18770,2024-06-21 09:06:08.714,2024-06-21 17:06:08.713,17,0,0,44.569,42.323409,117.204569,2.20,0.80,0.00,0.60,-6.40,-69.30,0,1,0,92,91,-35693,10569,44569,2921.50,36,P-GPS,1,0,0,114,0,0,0,1718960768713,4051,4054,4054,4058,4056,4053,18,,,,,,,0,0,0,-6.00,-64.00,-693.00,0.00,0.00,0.00,6,137.00,23.41,167.93,22.00,8.00,0.00,0,,,100,100,19,2,0,0,0,2,0,,,,,0.0,0.0,0.0,0.0,0.0,0.0,-1
42.323556,117.204626,13.70,0.00,2.25,17.04,14.00,14.00,2.85,17.04,18869,2024-06-21 09:06:08.813,2024-06-21 17:06:08.812,17,0,0,44.566,42.323409,117.204569,2.10,0.80,0.00,0.50,-6.60,-69.30,0,1,0,92,91,-35693,10569,44566,2921.50,36,P-GPS,1,0,0,116,0,0,0,1718960768812,4051,4054,4054,4058,4056,4053,18,,,,,,,0,0,0,-5.00,-66.00,-693.00,0.00,0.00,0.00,6,137.00,22.47,170.43,21.00,8.00,0.00,0,,,100,100,19,2,0,0,0,2,0,,,,,0.0,0.0,0.0,0.0,0.0,0.0,-1
42.323559,117.204627,13.70,0.00,2.15,17.30,14.00,14.00,2.85,17.30,18971,2024-06-21 09:06:08.914,2024-06-21 17:06:08.914,17,0,0,44.566,42.323409,117.204569,2.00,0.80,0.00,0.20,-6.40,-69.30,0,1,0,92,91,-35693,10569,44566,2921.50,36,P-GPS,1,0,0,94,0,0,0,1718960768914,4051,4054,4054,4058,4056,4053,18,,,,,,,0,0,0,-2.00,-64.00,-693.00,0.00,0.00,0.00,6,137.00,21.54,172.98,20.00,8.00,0.00,0,,,100,100,19,2,0,0,0,2,0,,,,,0.0,0.0,0.0,0.0,0.0,0.0,-1
42.323561,117.204628,13.70,0.00,2.15,17.53,14.00,14.00,2.85,17.53,19071,2024-06-21 09:06:09.014,2024-06-21 17:06:09.014,17,0,0,44.566,42.323409,117.204569,2.00,0.80,0.00,0.00,-6.20,-69.30,0,1,0,92,91,-35693,10569,44566,2921.50,36,P-GPS,1,0,0,91,0,0,0,1718960769014,4051,4054,4054,4058,4056,4053,18,,,,,,,0,0,0,-0.00,-62.00,-693.00,0.00,0.00,0.00,6,137.00,21.54,175.32,20.00,8.00,0.00,0,,,100,100,19,2,0,0,0,2,0,,,,,0.0,0.0,0.0,0.0,0.0,0.0,-1
42.323563,117.204629,13.70,0.00,2.06,17.77,14.00,14.00,2.85,17.77,19171,2024-06-21 09:06:09.115,2024-06-21 17:06:09.114,17,0,0,44.566,42.323409,117.204569,1.90,0.80,0.00,-0.10,-6.20,-69.20,0,1,0,92,91,-35693,10569,44566,2921.50,36,P-GPS,1,0,0,44,0,0,0,1718960769114,4051,4054,4054,4058,4056,4053,18,,,,,,,0,0,0,1.00,-62.00,-692.00,0.00,0.00,0.00,6,137.00,20.62,177.69,19.00,8.00,0.00,0,,,100,100,19,2,0,0,0,2,0,,,,,0.0,0.0,0.0,0.0,0.0,0.0,-1
42.323563,117.204629,13.70,0.00,2.06,17.77,14.00,14.00,2.85,17.77,19269,2024-06-21 09:06:09.212,2024-06-21 17:06:09.212,17,0,0,44.566,42.323409,117.204569,1.90,0.80,0.00,-0.10,-6.20,-69.20,0,1,0,92,91,-35693,10569,44566,2921.50,36,P-GPS,1,0,0,44,0,0,0,1718960769212,4051,4054,4054,4058,4056,4053,18,,,,,,,0,0,0,1.00,-62.00,-692.00,0.00,0.00,0.00,6,137.00,20.62,177.69,19.00,8.00,0.00,0,,,100,100,19,2,0,0,0,2,0,,,,,0.0,0.0,0.0,0.0,0.0,0.0,-1
42.323566,117.204632,13.70,0.00,1.84,18.21,14.00,14.00,2.85,18.21,19370,2024-06-21 09:06:09.314,2024-06-21 17:06:09.313,16,0,0,44.566,42.323409,117.204569,1.70,0.70,0.00,-0.30,-6.80,-69.20,0,1,0,92,91,-35693,10569,44566,2921.50,36,P-GPS,1,0,0,71,0,0,0,1718960769313,4051,4054,4054,4058,4056,4053,18,,,,,,,0,0,0,3.00,-68.00,-692.00,0.00,0.00,0.00,6,137.00,18.38,182.08,17.00,7.00,0.00,0,,,100,100,19,2,0,0,0,2,0,,,,,0.0,0.0,0.0,0.0,0.0,0.0,-1
42.323568,117.204633,13.70,0.00,1.84,18.41,14.00,14.00,2.85,18.41,19477,2024-06-21 09:06:09.420,2024-06-21 17:06:09.420,16,0,0,44.566,42.323409,117.204569,1.70,0.70,0.00,-0.40,-6.90,-69.20,0,1,0,92,91,-35693,10569,44566,2921.50,36,P-GPS,1,0,0,100,0,0,0,1718960769420,4051,4054,4054,4058,4056,4053,18,,,,,,,0,0,0,4.00,-69.00,-692.00,0.00,0.00,0.00,6,137.00,18.38,184.10,17.00,7.00,0.00,0,,,100,100,19,2,0,0,0,2,0,,,,,0.0,0.0,0.0,0.0,0.0,0.0,-1
42.323569,117.204634,13.70,0.00,1.75,18.62,14.00,14.00,2.85,18.62,19573,2024-06-21 09:06:09.517,2024-06-21 17:06:09.516,16,0,0,44.566,42.323409,117.204569,1.60,0.70,0.00,-0.40,-6.80,-69.20,0,1,0,92,91,-35693,10569,44566,2921.50,36,P-GPS,1,0,0,85,0,0,0,1718960769516,4051,4054,4054,4058,4056,4053,18,,,,,,,0,0,0,4.00,-68.00,-692.00,0.00,0.00,0.00,6,137.00,17.46,186.16,16.00,7.00,0.00,0,,,100,100,19,2,0,0,0,2,0,,,,,0.0,0.0,0.0,0.0,0.0,0.0,-1
42.323571,117.204635,13.70,0.00,1.62,18.80,14.00,14.00,2.85,18.80,19675,2024-06-21 09:06:09.618,2024-06-21 17:06:09.618,16,0,0,44.566,42.323409,117.204569,1.50,0.60,0.00,-0.40,-6.40,-69.20,0,1,0,92,91,-35693,10569,44566,2921.50,36,P-GPS,1,0,0,71,0,0,0,1718960769618,4051,4054,4054,4058,4056,4053,18,,,,,,,0,0,0,4.00,-64.00,-692.00,0.00,0.00,0.00,6,137.00,16.16,188.01,15.00,6.00,0.00,0,,,100,100,19,2,0,0,0,2,0,,,,,0.0,0.0,0.0,0.0,0.0,0.0,-1
42.323573,117.204636,13.70,0.00,1.52,18.99,14.00,14.00,2.85,18.99,19774,2024-06-21 09:06:09.717,2024-06-21 17:06:09.717,16,0,0,44.566,42.323409,117.204569,1.40,0.60,0.00,-0.40,-6.00,-69.30,0,1,0,92,91,-35693,10569,44566,2921.50,36,P-GPS,1,0,0,71,0,0,0,1718960769717,4051,4054,4054,4058,4056,4053,18,,,,,,,0,0,0,4.00,-60.00,-693.00,0.00,0.00,0.00,6,137.00,15.23,189.88,14.00,6.00,0.00,0,,,100,100,19,2,0,0,0,2,0,,,,,0.0,0.0,0.0,0.0,0.0,0.0,-1
42.323574,117.204637,13.70,0.00,1.52,19.16,14.00,14.00,2.85,19.16,19875,2024-06-21 09:06:09.818,2024-06-21 17:06:09.818,16,0,0,44.566,42.323409,117.204569,1.40,0.60,0.00,-0.40,-6.00,-69.30,0,1,0,92,91,-34390,10569,44566,2921.50,36,P-GPS,1,0,0,59,0,0,0,1718960769818,4051,4054,4054,4058,4056,4053,18,,,,,,,0,0,0,4.00,-60.00,-693.00,0.00,0.00,0.00,6,137.00,15.23,191.55,14.00,6.00,0.00,0,,,100,100,19,2,0,0,0,2,0,,,,,0.0,0.0,0.0,0.0,0.0,0.0,-1
42.323575,117.204638,13.70,0.00,1.43,19.33,14.00,14.00,2.85,19.33,19978,2024-06-21 09:06:09.923,2024-06-21 17:06:09.921,16,0,0,44.566,42.323409,117.204569,1.30,0.60,0.00,-0.40,-6.00,-69.20,0,1,0,92,91,-34390,10569,44566,2921.50,36,P-GPS,1,0,0,85,0,0,0,1718960769921,4051,4054,4054,4058,4056,4053,18,,,,,,,0,0,0,4.00,-60.00,-692.00,0.00,0.00,0.00,6,137.00,14.32,193.26,13.00,6.00,0.00,0,,,100,100,19,2,0,0,0,2,0,,,,,0.0,0.0,0.0,0.0,0.0,0.0,-1
42.323577,117.204639,13.70,0.00,1.34,19.48,14.00,14.00,2.85,19.48,20078,2024-06-21 09:06:10.021,2024-06-21 17:06:10.021,16,0,0,44.566,42.323409,117.204569,1.20,0.60,0.00,-0.40,-5.70,-69.20,0,1,0,92,91,-34390,10569,44566,2921.50,36,P-GPS,1,0,0,75,0,0,0,1718960770021,4051,4054,4054,4058,4056,4053,18,,,,,,,0,0,0,4.00,-57.00,-692.00,0.00,0.00,0.00,6,137.00,13.42,194.80,12.00,6.00,0.00,0,,,100,100,19,2,0,0,0,2,0,,,,,0.0,0.0,0.0,0.0,0.0,0.0,-1
42.323578,117.204640,13.70,0.00,1.30,19.64,14.00,14.00,2.85,19.64,20178,2024-06-21 09:06:10.121,2024-06-21 17:06:10.121,16,0,0,44.566,42.323409,117.204569,1.20,0.50,0.00,-0.50,-5.40,-69.20,0,1,0,92,91,-34390,10569,44566,2921.50,36,P-GPS,1,0,0,85,0,0,0,1718960770121,4051,4054,4054,4058,4056,4053,18,,,,,,,0,0,0,5.00,-54.00,-692.00,0.00,0.00,0.00,6,137.00,13.00,196.38,12.00,5.00,0.00,0,,,100,100,19,2,0,0,0,2,0,,,,,0.0,0.0,0.0,0.0,0.0,0.0,-1
42.323579,117.204640,13.70,0.00,1.21,19.78,14.00,14.00,2.85,19.78,20279,2024-06-21 09:06:10.222,2024-06-21 17:06:10.222,16,0,0,44.566,42.323409,117.204569,1.10,0.50,0.00,-0.50,-5.10,-69.20,0,1,0,92,91,-34390,10569,44566,2921.50,36,P-GPS,1,0,0,55,0,0,0,1718960770222,4051,4054,4054,4058,4056,4053,18,,,,,,,0,0,0,5.00,-51.00,-692.00,0.00,0.00,0.00,6,137.00,12.08,197.79,11.00,5.00,0.00,0,,,100,100,19,2,0,0,0,2,0,,,,,0.0,0.0,0.0,0.0,0.0,0.0,-1
42.323580,117.204641,13.70,0.00,1.21,19.93,14.00,14.00,2.85,19.93,20379,2024-06-21 09:06:10.322,2024-06-21 17:06:10.322,16,0,0,44.566,42.323409,117.204569,1.10,0.50,0.00,-0.60,-4.90,-69.20,0,1,0,92,91,-34390,10569,44566,2921.50,36,P-GPS,1,0,0,67,0,0,0,1718960770322,4051,4054,4054,4058,4056,4053,18,,,,,,,0,0,0,6.00,-49.00,-692.00,0.00,0.00,0.00,6,137.00,12.08,199.28,11.00,5.00,0.00,0,,,100,100,19,2,0,0,0,2,0,,,,,0.0,0.0,0.0,0.0,0.0,0.0,-1
42.323581,117.204642,13.70,0.00,1.21,20.06,14.00,14.00,2.85,20.06,20482,2024-06-21 09:06:10.426,2024-06-21 17:06:10.425,16,0,0,44.566,42.323409,117.204569,1.10,0.50,0.00,-0.70,-4.90,-69.20,0,1,0,92,91,-34390,10569,44566,2921.50,36,P-GPS,1,0,0,58,0,0,0,1718960770425,4051,4054,4054,4058,4056,4053,18,,,,,,,0,0,0,7.00,-49.00,-692.00,0.00,0.00,0.00,6,137.00,12.08,200.61,11.00,5.00,0.00,0,,,100,100,19,2,0,0,0,2,0,,,,,0.0,0.0,0.0,0.0,0.0,0.0,-1
42.323582,117.204643,13.70,0.00,1.12,20.21,14.00,14.00,2.85,20.21,20583,2024-06-21 09:06:10.526,2024-06-21 17:06:10.526,16,0,0,44.566,42.323409,117.204569,1.00,0.50,0.00,-0.70,-4.90,-69.20,0,1,0,92,91,-34390,10569,44566,2921.50,36,P-GPS,1,0,0,78,0,0,0,1718960770526,4051,4054,4054,4058,4056,4053,18,,,,,,,0,0,0,7.00,-49.00,-692.00,0.00,0.00,0.00,6,137.00,11.18,202.08,10.00,5.00,0.00,0,,,100,100,19,2,0,0,0,2,0,,,,,0.0,0.0,0.0,0.0,0.0,0.0,-1
42.323583,117.204644,13.70,0.00,1.12,20.34,14.00,14.00,2.85,20.34,20685,2024-06-21 09:06:10.629,2024-06-21 17:06:10.628,16,0,0,44.566,42.323409,117.204569,1.00,0.50,0.00,-0.70,-4.80,-69.20,0,1,0,92,91,-34390,10569,44566,2921.50,36,P-GPS,1,0,0,84,0,0,0,1718960770628,4051,4054,4054,4058,4056,4053,18,,,,,,,0,0,0,7.00,-48.00,-692.00,0.00,0.00,0.00,6,137.00,11.18,203.38,10.00,5.00,0.00,0,,,100,100,19,2,0,0,0,2,0,,,,,0.0,0.0,0.0,0.0,0.0,0.0,-1
42.323585,117.204645,13.70,0.00,1.03,20.48,14.00,14.00,2.85,20.48,20784,2024-06-21 09:06:10.727,2024-06-21 17:06:10.727,16,0,0,44.566,42.323409,117.204569,0.90,0.50,0.00,-0.60,-4.70,-69.20,0,1,0,92,91,-34390,10569,44566,2921.50,36,P-GPS,1,0,0,122,0,0,0,1718960770727,4051,4054,4054,4058,4056,4053,18,,,,,,,0,0,0,6.00,-47.00,-692.00,0.00,0.00,0.00,6,137.00,10.30,204.80,9.00,5.00,0.00,0,,,100,100,19,2,0,0,0,2,0,,,,,0.0,0.0,0.0,0.0,0.0,0.0,-1
42.323586,117.204645,13.70,0.00,1.03,20.60,14.00,14.00,2.85,20.60,20884,2024-06-21 09:06:10.827,2024-06-21 17:06:10.827,16,0,0,44.566,42.323409,117.204569,0.90,0.50,0.00,-0.50,-4.20,-69.20,0,1,0,92,91,-34390,10569,44566,2921.50,36,P-GPS,1,0,0,118,0,0,0,1718960770827,4051,4054,4054,4058,4056,4053,18,,,,,,,0,0,0,5.00,-42.00,-692.00,0.00,0.00,0.00,6,137.00,10.30,206.03,9.00,5.00,0.00,0,,,100,100,19,2,0,0,0,2,0,,,,,0.0,0.0,0.0,0.0,0.0,0.0,-1
42.323587,117.204646,13.70,0.00,1.03,20.73,14.00,14.00,2.85,20.73,20986,2024-06-21 09:06:10.930,2024-06-21 17:06:10.929,16,0,0,44.566,42.323409,117.204569,0.90,0.50,0.00,-0.50,-3.70,-69.20,0,1,0,92,91,-34390,10569,44566,2921.50,36,P-GPS,1,0,0,129,0,0,0,1718960770929,4051,4054,4054,4058,4056,4053,18,,,,,,,0,0,0,5.00,-37.00,-692.00,0.00,0.00,0.00,6,137.00,10.30,207.34,9.00,5.00,0.00,0,,,100,100,19,2,0,0,0,2,0,,,,,0.0,0.0,0.0,0.0,0.0,0.0,-1
42.323587,117.204647,13.70,0.00,0.98,20.85,14.00,14.00,2.85,20.85,21083,2024-06-21 09:06:11.026,2024-06-21 17:06:11.026,16,0,0,44.566,42.323409,117.204569,0.90,0.40,0.00,-0.60,-3.00,-69.20,0,1,0,92,91,-34390,10569,44566,2921.50,36,P-GPS,1,0,0,139,0,0,0,1718960771026,4051,4054,4054,4058,4056,4053,18,,,,,,,0,0,0,6.00,-30.00,-692.00,0.00,0.00,0.00,6,137.00,9.85,208.47,9.00,4.00,0.00,0,,,100,100,19,2,0,0,0,2,0,,,,,0.0,0.0,0.0,0.0,0.0,0.0,-1
42.323589,117.204648,13.70,0.00,0.98,20.98,14.00,14.00,2.85,20.98,21184,2024-06-21 09:06:11.127,2024-06-21 17:06:11.127,16,0,0,44.566,42.323409,117.204569,0.90,0.40,0.00,-0.60,-2.30,-69.20,0,1,0,92,91,-34390,10569,44566,2921.50,36,P-GPS,1,0,0,224,0,0,0,1718960771127,4051,4054,4054,4058,4056,4053,18,,,,,,,0,0,0,6.00,-23.00,-692.00,0.00,0.00,0.00,6,137.00,9.85,209.75,9.00,4.00,0.00,0,,,100,100,19,2,0,0,0,2,0,,,,,0.0,0.0,0.0,0.0,0.0,0.0,-1
42.323589,117.204648,13.70,0.00,1.03,21.09,14.00,14.00,2.85,21.09,21286,2024-06-21 09:06:11.229,2024-06-21 17:06:11.229,16,0,0,44.566,42.323409,117.204569,0.90,0.50,0.00,-0.60,-0.70,-69.20,0,1,0,92,91,-34390,10569,44566,2921.50,36,P-GPS,1,0,0,280,0,0,0,1718960771229,4051,4054,4054,4058,4056,4053,18,,,,,,,0,0,0,6.00,-7.00,-692.00,0.00,0.00,0.00,6,137.00,10.30,210.92,9.00,5.00,0.00,0,,,100,100,19,2,0,0,0,2,0,,,,,0.0,0.0,0.0,0.0,0.0,0.0,-1
